[
  {
    "id": "matsuya-cc0e21bae0fb",
    "chainCode": "matsuya",
    "chain": "松屋",
    "name": "松屋 熊本光の森店（松のや併設）",
    "address": "熊本県菊池郡菊陽町光の森2-7-4",
    "lat": 32.857982,
    "lng": 130.780444,
    "prefecture": "熊本県",
    "prefectureCode": "kumamoto",
    "category": "gourmet",
    "categoryLabel": "飲食",
    "paymentTags": [
      "smart_code"
    ]
  },
  {
    "id": "matsuya-29561fb329a9",
    "chainCode": "matsuya",
    "chain": "松屋",
    "name": "松屋 熊本新市街店（松のや併設）",
    "address": "熊本県熊本市中央区新市街9-4 熊本第一ファ-ムビル1F",
    "lat": 32.798742,
    "lng": 130.706838,
    "prefecture": "熊本県",
    "prefectureCode": "kumamoto",
    "category": "gourmet",
    "categoryLabel": "飲食",
    "paymentTags": [
      "smart_code"
    ]
  },
  {
    "id": "matsuya-4ec3b874c14e",
    "chainCode": "matsuya",
    "chain": "松屋",
    "name": "松屋 熊本桜木店（松のや併設）",
    "address": "熊本県熊本市東区桜木4-2-63",
    "lat": 32.779599,
    "lng": 130.785571,
    "prefecture": "熊本県",
    "prefectureCode": "kumamoto",
    "category": "gourmet",
    "categoryLabel": "飲食",
    "paymentTags": [
      "smart_code"
    ]
  },
  {
    "id": "matsuya-8c7d6ce83054",
    "chainCode": "matsuya",
    "chain": "松屋",
    "name": "松屋 熊本長嶺南店（松のや併設）",
    "address": "熊本県熊本市東区長嶺南一-7-20",
    "lat": 32.812332,
    "lng": 130.768708,
    "prefecture": "熊本県",
    "prefectureCode": "kumamoto",
    "category": "gourmet",
    "categoryLabel": "飲食",
    "paymentTags": [
      "smart_code"
    ]
  },
  {
    "id": "nishimatsuya-1125",
    "chainCode": "nishimatsuya",
    "chain": "西松屋",
    "name": "アヴァンモール菊陽店",
    "address": "熊本県菊池郡菊陽町大字津久礼2740-4",
    "lat": 32.86454391479492,
    "lng": 130.81214904785156,
    "prefecture": "熊本県",
    "prefectureCode": "kumamoto",
    "category": "baby_kids",
    "categoryLabel": "ベビー・子ども",
    "paymentTags": [
      "smart_code"
    ]
  },
  {
    "id": "nishimatsuya-606",
    "chainCode": "nishimatsuya",
    "chain": "西松屋",
    "name": "イオンモール宇城店",
    "address": "熊本県宇城市小川町河江1-1 イオンモ-ル宇城内",
    "lat": 32.593170166015625,
    "lng": 130.70701599121094,
    "prefecture": "熊本県",
    "prefectureCode": "kumamoto",
    "category": "baby_kids",
    "categoryLabel": "ベビー・子ども",
    "paymentTags": [
      "smart_code"
    ]
  },
  {
    "id": "nishimatsuya-1287",
    "chainCode": "nishimatsuya",
    "chain": "西松屋",
    "name": "エムズシティ水俣店",
    "address": "熊本県水俣市大黒町2-3-18 エムズシティ1階",
    "lat": 32.21050262451172,
    "lng": 130.40164184570312,
    "prefecture": "熊本県",
    "prefectureCode": "kumamoto",
    "category": "baby_kids",
    "categoryLabel": "ベビー・子ども",
    "paymentTags": [
      "smart_code"
    ]
  },
  {
    "id": "nishimatsuya-30",
    "chainCode": "nishimatsuya",
    "chain": "西松屋",
    "name": "フレスポくまもく店",
    "address": "熊本県熊本市中央区萩原町2-3 フレスポくまもく内",
    "lat": 32.783546447753906,
    "lng": 130.71177673339844,
    "prefecture": "熊本県",
    "prefectureCode": "kumamoto",
    "category": "baby_kids",
    "categoryLabel": "ベビー・子ども",
    "paymentTags": [
      "smart_code"
    ]
  },
  {
    "id": "nishimatsuya-120",
    "chainCode": "nishimatsuya",
    "chain": "西松屋",
    "name": "八代店",
    "address": "熊本県八代市田中町465-1",
    "lat": 32.518245697021484,
    "lng": 130.60787963867188,
    "prefecture": "熊本県",
    "prefectureCode": "kumamoto",
    "category": "baby_kids",
    "categoryLabel": "ベビー・子ども",
    "paymentTags": [
      "smart_code"
    ]
  },
  {
    "id": "nishimatsuya-1059",
    "chainCode": "nishimatsuya",
    "chain": "西松屋",
    "name": "宇土シティモール店",
    "address": "熊本県宇土市善道寺町綾織95 宇土シティモ-ル 2階",
    "lat": 32.6844367980957,
    "lng": 130.66860961914062,
    "prefecture": "熊本県",
    "prefectureCode": "kumamoto",
    "category": "baby_kids",
    "categoryLabel": "ベビー・子ども",
    "paymentTags": [
      "smart_code"
    ]
  },
  {
    "id": "nishimatsuya-270",
    "chainCode": "nishimatsuya",
    "chain": "西松屋",
    "name": "山鹿店",
    "address": "熊本県山鹿市方保田字鳥越3462-1 山鹿ショッピングセンタ-内",
    "lat": 33.006553649902344,
    "lng": 130.7233123779297,
    "prefecture": "熊本県",
    "prefectureCode": "kumamoto",
    "category": "baby_kids",
    "categoryLabel": "ベビー・子ども",
    "paymentTags": [
      "smart_code"
    ]
  },
  {
    "id": "nishimatsuya-337",
    "chainCode": "nishimatsuya",
    "chain": "西松屋",
    "name": "本渡店",
    "address": "熊本県天草市丸尾町15-27",
    "lat": 32.46989822387695,
    "lng": 130.1857147216797,
    "prefecture": "熊本県",
    "prefectureCode": "kumamoto",
    "category": "baby_kids",
    "categoryLabel": "ベビー・子ども",
    "paymentTags": [
      "smart_code"
    ]
  },
  {
    "id": "nishimatsuya-178",
    "chainCode": "nishimatsuya",
    "chain": "西松屋",
    "name": "熊本合志店",
    "address": "熊本県合志市大字幾久富1909-1600",
    "lat": 32.86566925048828,
    "lng": 130.7713165283203,
    "prefecture": "熊本県",
    "prefectureCode": "kumamoto",
    "category": "baby_kids",
    "categoryLabel": "ベビー・子ども",
    "paymentTags": [
      "smart_code"
    ]
  },
  {
    "id": "nishimatsuya-820",
    "chainCode": "nishimatsuya",
    "chain": "西松屋",
    "name": "熊本大津店",
    "address": "熊本県菊池郡大津町室269-1",
    "lat": 32.87529373168945,
    "lng": 130.86793518066406,
    "prefecture": "熊本県",
    "prefectureCode": "kumamoto",
    "category": "baby_kids",
    "categoryLabel": "ベビー・子ども",
    "paymentTags": [
      "smart_code"
    ]
  },
  {
    "id": "nishimatsuya-863",
    "chainCode": "nishimatsuya",
    "chain": "西松屋",
    "name": "熊本川尻店",
    "address": "熊本県熊本市南区野田2-29-23",
    "lat": 32.73148727416992,
    "lng": 130.6834716796875,
    "prefecture": "熊本県",
    "prefectureCode": "kumamoto",
    "category": "baby_kids",
    "categoryLabel": "ベビー・子ども",
    "paymentTags": [
      "smart_code"
    ]
  },
  {
    "id": "nishimatsuya-418",
    "chainCode": "nishimatsuya",
    "chain": "西松屋",
    "name": "熊本松橋店",
    "address": "熊本県宇城市松橋町きらら1-5-1",
    "lat": 32.64577865600586,
    "lng": 130.67843627929688,
    "prefecture": "熊本県",
    "prefectureCode": "kumamoto",
    "category": "baby_kids",
    "categoryLabel": "ベビー・子ども",
    "paymentTags": [
      "smart_code"
    ]
  },
  {
    "id": "nishimatsuya-1234",
    "chainCode": "nishimatsuya",
    "chain": "西松屋",
    "name": "熊本武蔵ケ丘店",
    "address": "熊本県熊本市北区武蔵ケ丘3-1-3",
    "lat": 32.852508544921875,
    "lng": 130.7665252685547,
    "prefecture": "熊本県",
    "prefectureCode": "kumamoto",
    "category": "baby_kids",
    "categoryLabel": "ベビー・子ども",
    "paymentTags": [
      "smart_code"
    ]
  },
  {
    "id": "nishimatsuya-397",
    "chainCode": "nishimatsuya",
    "chain": "西松屋",
    "name": "熊本江越店",
    "address": "熊本県熊本市南区江越1-17-7",
    "lat": 32.77510452270508,
    "lng": 130.70083618164062,
    "prefecture": "熊本県",
    "prefectureCode": "kumamoto",
    "category": "baby_kids",
    "categoryLabel": "ベビー・子ども",
    "paymentTags": [
      "smart_code"
    ]
  },
  {
    "id": "nishimatsuya-419",
    "chainCode": "nishimatsuya",
    "chain": "西松屋",
    "name": "熊本清水バイパス店",
    "address": "熊本県熊本市北区高平3-36-22",
    "lat": 32.84003448486328,
    "lng": 130.71815490722656,
    "prefecture": "熊本県",
    "prefectureCode": "kumamoto",
    "category": "baby_kids",
    "categoryLabel": "ベビー・子ども",
    "paymentTags": [
      "smart_code"
    ]
  },
  {
    "id": "nishimatsuya-939",
    "chainCode": "nishimatsuya",
    "chain": "西松屋",
    "name": "熊本花立店",
    "address": "熊本県熊本市東区花立4-3-5",
    "lat": 32.78435134887695,
    "lng": 130.77447509765625,
    "prefecture": "熊本県",
    "prefectureCode": "kumamoto",
    "category": "baby_kids",
    "categoryLabel": "ベビー・子ども",
    "paymentTags": [
      "smart_code"
    ]
  },
  {
    "id": "nishimatsuya-535",
    "chainCode": "nishimatsuya",
    "chain": "西松屋",
    "name": "熊本長嶺店",
    "address": "熊本県熊本市東区長嶺南2-5-5",
    "lat": 32.81093978881836,
    "lng": 130.7686767578125,
    "prefecture": "熊本県",
    "prefectureCode": "kumamoto",
    "category": "baby_kids",
    "categoryLabel": "ベビー・子ども",
    "paymentTags": [
      "smart_code"
    ]
  },
  {
    "id": "nishimatsuya-423",
    "chainCode": "nishimatsuya",
    "chain": "西松屋",
    "name": "玉名店",
    "address": "熊本県玉名市岱明町庄山812",
    "lat": 32.93582534790039,
    "lng": 130.51824951171875,
    "prefecture": "熊本県",
    "prefectureCode": "kumamoto",
    "category": "baby_kids",
    "categoryLabel": "ベビー・子ども",
    "paymentTags": [
      "smart_code"
    ]
  },
  {
    "id": "nishimatsuya-874",
    "chainCode": "nishimatsuya",
    "chain": "西松屋",
    "name": "菊池店",
    "address": "熊本県菊池市大琳寺字堀ノ内138-1",
    "lat": 32.97293472290039,
    "lng": 130.80474853515625,
    "prefecture": "熊本県",
    "prefectureCode": "kumamoto",
    "category": "baby_kids",
    "categoryLabel": "ベビー・子ども",
    "paymentTags": [
      "smart_code"
    ]
  }
]
