[
  {
    "id": "matsuya-d8c806b85632",
    "chainCode": "matsuya",
    "chain": "松屋",
    "name": "松屋 出雲大塚店（松のや併設） ※3月26日10時オープン",
    "address": "島根県出雲市大塚町742",
    "lat": 35.375754,
    "lng": 132.751929,
    "prefecture": "島根県",
    "prefectureCode": "shimane",
    "category": "gourmet",
    "categoryLabel": "飲食",
    "paymentTags": [
      "smart_code"
    ]
  },
  {
    "id": "nishimatsuya-1375",
    "chainCode": "nishimatsuya",
    "chain": "西松屋",
    "name": "スーパーセンタートライアル浜田店",
    "address": "島根県浜田市周布町イ61-1 ス-パ-センタ-トライアル浜田店内",
    "lat": 34.86284255981445,
    "lng": 132.02645874023438,
    "prefecture": "島根県",
    "prefectureCode": "shimane",
    "category": "baby_kids",
    "categoryLabel": "ベビー・子ども",
    "paymentTags": [
      "smart_code"
    ]
  },
  {
    "id": "nishimatsuya-1225",
    "chainCode": "nishimatsuya",
    "chain": "西松屋",
    "name": "出雲ラピタ本店",
    "address": "島根県出雲市今市町87- ラピタ本店2階",
    "lat": 35.36848449707031,
    "lng": 132.7538299560547,
    "prefecture": "島根県",
    "prefectureCode": "shimane",
    "category": "baby_kids",
    "categoryLabel": "ベビー・子ども",
    "paymentTags": [
      "smart_code"
    ]
  },
  {
    "id": "nishimatsuya-138",
    "chainCode": "nishimatsuya",
    "chain": "西松屋",
    "name": "出雲大塚店",
    "address": "島根県出雲市大塚町794-1",
    "lat": 35.37621307373047,
    "lng": 132.75265502929688,
    "prefecture": "島根県",
    "prefectureCode": "shimane",
    "category": "baby_kids",
    "categoryLabel": "ベビー・子ども",
    "paymentTags": [
      "smart_code"
    ]
  },
  {
    "id": "nishimatsuya-137",
    "chainCode": "nishimatsuya",
    "chain": "西松屋",
    "name": "出雲平田店",
    "address": "島根県出雲市平田町7155 シェルピア中ノ島内",
    "lat": 35.440128326416016,
    "lng": 132.82359313964844,
    "prefecture": "島根県",
    "prefectureCode": "shimane",
    "category": "baby_kids",
    "categoryLabel": "ベビー・子ども",
    "paymentTags": [
      "smart_code"
    ]
  },
  {
    "id": "nishimatsuya-628",
    "chainCode": "nishimatsuya",
    "chain": "西松屋",
    "name": "大田店",
    "address": "島根県大田市長久町土江102-2",
    "lat": 35.196781158447266,
    "lng": 132.47955322265625,
    "prefecture": "島根県",
    "prefectureCode": "shimane",
    "category": "baby_kids",
    "categoryLabel": "ベビー・子ども",
    "paymentTags": [
      "smart_code"
    ]
  },
  {
    "id": "nishimatsuya-362",
    "chainCode": "nishimatsuya",
    "chain": "西松屋",
    "name": "松江春日店",
    "address": "島根県松江市春日町字中代186-1",
    "lat": 35.486541748046875,
    "lng": 133.04595947265625,
    "prefecture": "島根県",
    "prefectureCode": "shimane",
    "category": "baby_kids",
    "categoryLabel": "ベビー・子ども",
    "paymentTags": [
      "smart_code"
    ]
  },
  {
    "id": "nishimatsuya-361",
    "chainCode": "nishimatsuya",
    "chain": "西松屋",
    "name": "松江東津田店",
    "address": "島根県松江市東津田町1132-1",
    "lat": 35.45822525024414,
    "lng": 133.08380126953125,
    "prefecture": "島根県",
    "prefectureCode": "shimane",
    "category": "baby_kids",
    "categoryLabel": "ベビー・子ども",
    "paymentTags": [
      "smart_code"
    ]
  },
  {
    "id": "nishimatsuya-906",
    "chainCode": "nishimatsuya",
    "chain": "西松屋",
    "name": "益田中吉田店",
    "address": "島根県益田市中吉田町1084-5",
    "lat": 34.6884651184082,
    "lng": 131.84140014648438,
    "prefecture": "島根県",
    "prefectureCode": "shimane",
    "category": "baby_kids",
    "categoryLabel": "ベビー・子ども",
    "paymentTags": [
      "smart_code"
    ]
  }
]
