address,lat,lng,raw_query,provider
東京都千代田区丸の内1-9-1,35.681607,139.767051,東京都千代田区丸の内1-9-1,nominatim
福岡県福岡市東区箱崎4-7-55 BOXタウン箱崎内(1階),33.61943435668945,130.4174041748047,福岡県福岡市東区箱崎4-7-55 BOXタウン箱崎内(1階),jageocoder
広島県広島市南区宇品海岸3-7-65 DCMダイキ宇品店内,34.35577392578125,132.46336364746094,広島県広島市南区宇品海岸3-7-65 DCMダイキ宇品店内,jageocoder
北海道河東郡音更町木野大通東12-2-12 DCM音更内,42.95949172973633,143.2078094482422,北海道河東郡音更町木野大通東12-2-12 DCM音更内,jageocoder
東京都荒川区南千住4-7-2 LaLaテラス南千住1F,35.7358283996582,139.8019256591797,東京都荒川区南千住4-7-2 LaLaテラス南千住1F,jageocoder
神奈川県平塚市代官町33-1 OSC湘南シティ2F 3/26(木)同施設内1Fに売場を拡大してリニュ-アルオ-プンします。,35.328758239746094,139.35679626464844,神奈川県平塚市代官町33-1 OSC湘南シティ2F 3/26(木)同施設内1Fに売場を拡大してリニュ-アルオ-プンします。,jageocoder
東京都あきる野市秋川1-17-1 あきるのプレイス2F,35.73088836669922,139.28729248046875,東京都あきる野市秋川1-17-1 あきるのプレイス2F,jageocoder
東京都あきる野市瀬戸岡781-3,35.7397346496582,139.2904815673828,東京都あきる野市瀬戸岡781-3,jageocoder
大分県大分市明野東一-1-1 あけのアクロスタウン本館内 4F,33.22404098510742,131.6527099609375,大分県大分市明野東一-1-1 あけのアクロスタウン本館内 4F,jageocoder
千葉県我孫子市我孫子4-11-1 あびこショッピングプラザ2階,35.8764762878418,140.00950622558594,千葉県我孫子市我孫子4-11-1 あびこショッピングプラザ2階,jageocoder
大阪府泉佐野市下瓦屋2-2-77 いこらも〜る泉佐野2F,34.421775817871094,135.3287811279297,大阪府泉佐野市下瓦屋2-2-77 いこらも〜る泉佐野2F,jageocoder
福島県いわき市平谷川瀬二-3-4,37.046783447265625,140.8939208984375,福島県いわき市平谷川瀬二-3-4,jageocoder
福島県いわき市東田町2-17-7,36.92124938964844,140.80218505859375,福島県いわき市東田町2-17-7,jageocoder
福島県いわき市鹿島町久保字反町11-6,36.988704681396484,140.90499877929688,福島県いわき市鹿島町久保字反町11-6,jageocoder
沖縄県うるま市安慶名3-2-14,26.37354850769043,127.852783203125,沖縄県うるま市安慶名3-2-14,jageocoder
大阪府大阪市東淀川区大隅1-6-12,34.7484130859375,135.54107666015625,大阪府大阪市東淀川区大隅1-6-12,jageocoder
埼玉県さいたま市見沼区大字東門前32-1,35.93103790283203,139.6664276123047,埼玉県さいたま市見沼区大字東門前32-1,jageocoder
山形県鶴岡市千石町3-39,38.71867370605469,139.82940673828125,山形県鶴岡市千石町3-39,jageocoder
神奈川県横浜市戸塚区戸塚町4253-1 サクラス戸塚2階,35.401123046875,139.53106689453125,神奈川県横浜市戸塚区戸塚町4253-1 サクラス戸塚2階,jageocoder
北海道札幌市中央区北2条東4-1-2 サッポロファクトリ-1条館1F,43.06517028808594,141.3618621826172,北海道札幌市中央区北2条東4-1-2 サッポロファクトリ-1条館1F,jageocoder
東京都多摩市東寺方660-1 サミット東寺方店2F,35.64144515991211,139.43557739257812,東京都多摩市東寺方660-1 サミット東寺方店2F,jageocoder
神奈川県横浜市西区岡野2-5-18 サミット横浜岡野店の1階,35.45915603637695,139.61154174804688,神奈川県横浜市西区岡野2-5-18 サミット横浜岡野店の1階,jageocoder
東京都世田谷区砧1-1-2 サミットストア砧店3F,35.63620376586914,139.62130737304688,東京都世田谷区砧1-1-2 サミットストア砧店3F,jageocoder
東京都杉並区高井戸東4-1-13,35.68653869628906,139.62245178222656,東京都杉並区高井戸東4-1-13,jageocoder
福岡県宗像市くりえいと一-5-1 サンリブくりえいと宗像内1F,33.812564849853516,130.56326293945312,福岡県宗像市くりえいと一-5-1 サンリブくりえいと宗像内1F,jageocoder
福岡県古賀市天神2-5-1 サンリブ古賀 2F,33.73451614379883,130.46624755859375,福岡県古賀市天神2-5-1 サンリブ古賀 2F,jageocoder
静岡県島田市阿知ヶ谷25-1,34.836708068847656,138.1969451904297,静岡県島田市阿知ヶ谷25-1,jageocoder
東京都多摩市関戸1-1-5ザ・スクエア1F(聖蹟桜ヶ丘駅西口より徒歩3分),35.651363372802734,139.44589233398438,東京都多摩市関戸1-1-5ザ・スクエア1F(聖蹟桜ヶ丘駅西口より徒歩3分),jageocoder
山口県萩市大字椿字田村2283-1,34.389774322509766,131.4057159423828,山口県萩市大字椿字田村2283-1,jageocoder
北海道札幌市豊平区豊平4条9-3-1,43.04767990112305,141.37535095214844,北海道札幌市豊平区豊平4条9-3-1,jageocoder
東京都八王子市並木町35-1,35.65553665161133,139.30397033691406,東京都八王子市並木町35-1,jageocoder
神奈川県相模原市中央区下九沢57-1,35.575782775878906,139.34632873535156,神奈川県相模原市中央区下九沢57-1,jageocoder
北海道稚内市新光町1483-76 シティわっかない内,45.38616180419922,141.70040893554688,北海道稚内市新光町1483-76 シティわっかない内,jageocoder
愛知県名古屋市昭和区白金3-6-24 シャンピアポ-ト高辻内2階ダイソ-横,35.143009185791016,136.91769409179688,愛知県名古屋市昭和区白金3-6-24 シャンピアポ-ト高辻内2階ダイソ-横,jageocoder
福岡県筑紫野市大字原田836-5,33.443443298339844,130.53915405273438,福岡県筑紫野市大字原田836-5,jageocoder
埼玉県さいたま市中央区本町東6-14-26,35.89424514770508,139.615234375,埼玉県さいたま市中央区本町東6-14-26,jageocoder
埼玉県さいたま市岩槻区南平野二-25-2,35.95634078979492,139.71685791015625,埼玉県さいたま市岩槻区南平野二-25-2,jageocoder
埼玉県さいたま市北区日進町3-443-1,35.93754577636719,139.60357666015625,埼玉県さいたま市北区日進町3-443-1,jageocoder
山形県東根市中央南1-5-22,38.427490234375,140.39320373535156,山形県東根市中央南1-5-22,jageocoder
大阪府河内長野市西之山町5-20 じゃんぼスクエア河内長野 1階,34.4559440612793,135.56304931640625,大阪府河内長野市西之山町5-20 じゃんぼスクエア河内長野 1階,jageocoder
神奈川県鎌倉市笛田町1-2-10 たまや鎌倉手広店2F,35.330020904541016,139.513916015625,神奈川県鎌倉市笛田町1-2-10 たまや鎌倉手広店2F,jageocoder
兵庫県尼崎市塚口本町4-8-1 ひがしまち南館3F,34.76158142089844,135.41793823242188,兵庫県尼崎市塚口本町4-8-1 ひがしまち南館3F,jageocoder
茨城県つくば市研究学園3-10-7,36.086395263671875,140.07440185546875,茨城県つくば市研究学園3-10-7,jageocoder
茨城県ひたちなか市中根字深谷津3328-2,36.396358489990234,140.55154418945312,茨城県ひたちなか市中根字深谷津3328-2,jageocoder
埼玉県ふじみ野市ふじみ野2-25-26,35.86309814453125,139.5177001953125,埼玉県ふじみ野市ふじみ野2-25-26,jageocoder
東京都町田市旭町1-24-1,35.554443359375,139.44227600097656,東京都町田市旭町1-24-1,jageocoder
長崎県長崎市茂里町1-55,32.76298141479492,129.86477661132812,長崎県長崎市茂里町1-55,jageocoder
青森県むつ市小川町一-104-1,41.29208755493164,141.20350646972656,青森県むつ市小川町一-104-1,jageocoder
大阪府大阪市中央区森ノ宮中央2-1-70 もりのみやキュ-ズモ-ル2F,34.68128204345703,135.53134155273438,大阪府大阪市中央区森ノ宮中央2-1-70 もりのみやキュ-ズモ-ル2F,jageocoder
広島県呉市宝町2-50 ゆめタウン呉レクレ館,34.24428939819336,132.5567169189453,広島県呉市宝町2-50 ゆめタウン呉レクレ館,jageocoder
広島県大竹市晴海1-6-1 ゆめタウン大竹2F,34.24143600463867,132.2238006591797,広島県大竹市晴海1-6-1 ゆめタウン大竹2F,jageocoder
大阪府泉佐野市りんくう往来南3- りんくうシ-クル内,34.40622329711914,135.29515075683594,大阪府泉佐野市りんくう往来南3- りんくうシ-クル内,jageocoder
大阪府阪南市下出167-の1 2F,34.36176300048828,135.24349975585938,大阪府阪南市下出167-の1 2F,jageocoder
東京都豊島区南長崎4-5-20,35.72391128540039,139.68301391601562,東京都豊島区南長崎4-5-20,jageocoder
山形県東田川郡三川町大字猪子字大堰端351-1 アクロスプラザ三川内,38.81830978393555,139.83432006835938,山形県東田川郡三川町大字猪子字大堰端351-1 アクロスプラザ三川内,jageocoder
青森県五所川原市唐笠柳藤巻641-1,40.80092239379883,140.46151733398438,青森県五所川原市唐笠柳藤巻641-1,jageocoder
福島県いわき市小名浜大原字東田81-1 アクロスプラザ大原内,36.967018127441406,140.8906707763672,福島県いわき市小名浜大原字東田81-1 アクロスプラザ大原内,jageocoder
秋田県大館市餌釣字前田1- アクロスプラザ大館南内,40.2494010925293,140.57745361328125,秋田県大館市餌釣字前田1- アクロスプラザ大館南内,jageocoder
福岡県北九州市小倉北区明和町1-8,33.877132415771484,130.88755798339844,福岡県北九州市小倉北区明和町1-8,jageocoder
岐阜県恵那市長島町正家3-8-64-1,35.4454460144043,137.4171905517578,岐阜県恵那市長島町正家3-8-64-1,jageocoder
愛知県丹羽郡扶桑町高雄下野7,35.36503219604492,136.9218292236328,愛知県丹羽郡扶桑町高雄下野7,jageocoder
北海道札幌市中央区南23条西7-1-5,43.02954864501953,141.35162353515625,北海道札幌市中央区南23条西7-1-5,jageocoder
北海道札幌市南区石山二条9-7-62 アクロスプラザ札幌南内,42.95985412597656,141.3132781982422,北海道札幌市南区石山二条9-7-62 アクロスプラザ札幌南内,jageocoder
神奈川県横浜市神奈川区西寺尾1-16-15,35.500877380371094,139.64439392089844,神奈川県横浜市神奈川区西寺尾1-16-15,jageocoder
岩手県紫波郡紫波町日詰字丸盛197-1 アクロスプラザ紫波SC内,39.557861328125,141.16116333007812,岩手県紫波郡紫波町日詰字丸盛197-1 アクロスプラザ紫波SC内,jageocoder
兵庫県西脇市高田井町55-1,34.985713958740234,134.96450805664062,兵庫県西脇市高田井町55-1,jageocoder
長崎県諫早市久山町1271-6 アクロスプラザ諫早内,32.8278694152832,129.99819946289062,長崎県諫早市久山町1271-6 アクロスプラザ諫早内,jageocoder
滋賀県野洲市市三宅929- アクロスプラザ野洲内,35.068443298339844,136.01766967773438,滋賀県野洲市市三宅929- アクロスプラザ野洲内,jageocoder
新潟県長岡市沖田1-88- アクロスプラザ長岡内,37.44365310668945,138.86724853515625,新潟県長岡市沖田1-88- アクロスプラザ長岡内,jageocoder
栃木県足利市大月町3-2 アシコタウンあしかが内,36.33679962158203,139.477294921875,栃木県足利市大月町3-2 アシコタウンあしかが内,jageocoder
兵庫県明石市東仲ノ町6-1 アスピア明石南館3階,34.64809036254883,134.9950714111328,兵庫県明石市東仲ノ町6-1 アスピア明石南館3階,jageocoder
神奈川県厚木市戸室5-31-1 アツギトレリス1F,35.448646545410156,139.3433380126953,神奈川県厚木市戸室5-31-1 アツギトレリス1F,jageocoder
石川県加賀市作見町ル25-1 アビオシティ加賀 2F,36.32006072998047,136.35302734375,石川県加賀市作見町ル25-1 アビオシティ加賀 2F,jageocoder
神奈川県横浜市港北区綱島東4-3-17 アピタテラス横浜綱島2階,35.54195022583008,139.6414337158203,神奈川県横浜市港北区綱島東4-3-17 アピタテラス横浜綱島2階,jageocoder
愛知県一宮市木曽川町黒田八ノ通51-4,35.34449005126953,136.79042053222656,愛知県一宮市木曽川町黒田八ノ通51-4,jageocoder
石川県金沢市中村町10-20 アピタ金沢店 2階,36.5589485168457,136.64268493652344,石川県金沢市中村町10-20 アピタ金沢店 2階,jageocoder
愛知県長久手市戸田谷901-1 アピタ長久手店内,35.172454833984375,137.03834533691406,愛知県長久手市戸田谷901-1 アピタ長久手店内,jageocoder
宮城県白石市大平森合字森合沖83 アムザショッピングタウン白石内,37.996543884277344,140.61129760742188,宮城県白石市大平森合字森合沖83 アムザショッピングタウン白石内,jageocoder
滋賀県甲賀市水口町水口5555-,34.964115142822266,136.17140197753906,滋賀県甲賀市水口町水口5555-,jageocoder
岡山県真庭市久世2415- マルイ アルティ店内,35.080223083496094,133.74429321289062,岡山県真庭市久世2415- マルイ アルティ店内,jageocoder
京都府木津川市相楽城西15 アルプラザ木津2F,34.73853302001953,135.79249572753906,京都府木津川市相楽城西15 アルプラザ木津2F,jageocoder
兵庫県尼崎市潮江1-3-1 アル・プラザあまがさきキュ-ズモ-ル 3階,34.73311233520508,135.4317626953125,兵庫県尼崎市潮江1-3-1 アル・プラザあまがさきキュ-ズモ-ル 3階,jageocoder
大阪府茨木市上郡2-12-8 アル・プラザ茨木3階,34.838287353515625,135.5558319091797,大阪府茨木市上郡2-12-8 アル・プラザ茨木3階,jageocoder
愛知県安城市住吉町3-5-28 アンディ安城店2階,34.98019027709961,137.08221435546875,愛知県安城市住吉町3-5-28 アンディ安城店2階,jageocoder
熊本県菊池郡菊陽町大字津久礼2740-4,32.86454391479492,130.81214904785156,熊本県菊池郡菊陽町大字津久礼2740-4,jageocoder
北海道札幌市手稲区明日風6-1-1,43.14162826538086,141.23394775390625,北海道札幌市手稲区明日風6-1-1,jageocoder
埼玉県児玉郡上里町金久保359-1 イオンタウン上里2F,36.2603759765625,139.138671875,埼玉県児玉郡上里町金久保359-1 イオンタウン上里2F,jageocoder
岩手県北上市里分4地割77 イオンタウン北上内,39.29478073120117,141.13548278808594,岩手県北上市里分4地割77 イオンタウン北上内,jageocoder
愛知県名古屋市西区香呑町6-49-1,35.20404052734375,136.89248657226562,愛知県名古屋市西区香呑町6-49-1,jageocoder
山口県周南市古市1-4-1,34.0693244934082,131.75985717773438,山口県周南市古市1-4-1,jageocoder
福島県喜多方市塩川町小府根字曽谷田1 イオンタウン塩川内,37.61709976196289,139.89364624023438,福島県喜多方市塩川町小府根字曽谷田1 イオンタウン塩川内,jageocoder
岐阜県大垣市三塚町丹瀬463-1 イオンタウン大垣EAST 2F,35.365882873535156,136.6295623779297,岐阜県大垣市三塚町丹瀬463-1 イオンタウン大垣EAST 2F,jageocoder
静岡県富士市鮫島118-10 イオンタウン富士南1F,35.13909912109375,138.67715454101562,静岡県富士市鮫島118-10 イオンタウン富士南1F,jageocoder
山梨県中央市下河東3053-1,35.608497619628906,138.54161071777344,山梨県中央市下河東3053-1,jageocoder
青森県平川市小和森上松岡193-1 イオンタウン平賀内,40.59075164794922,140.56549072265625,青森県平川市小和森上松岡193-1 イオンタウン平賀内,jageocoder
滋賀県彦根市里根町24 イオンタウン彦根内,35.27032470703125,136.26673889160156,滋賀県彦根市里根町24 イオンタウン彦根内,jageocoder
大阪府松原市新堂4-1154 イオンタウン松原 2階,34.566192626953125,135.55223083496094,大阪府松原市新堂4-1154 イオンタウン松原 2階,jageocoder
宮城県柴田郡柴田町大字上名生字新大原194-1 イオンタウン柴田SC内,38.061893463134766,140.7954559326172,宮城県柴田郡柴田町大字上名生字新大原194-1 イオンタウン柴田SC内,jageocoder
茨城県東茨城郡茨城町長岡3480 イオンタウン水戸南内,36.309364318847656,140.43980407714844,茨城県東茨城郡茨城町長岡3480 イオンタウン水戸南内,jageocoder
沖縄県沖縄市泡瀬4-5-7 イオンタウン泡瀬内の1階,26.32179832458496,127.83039093017578,沖縄県沖縄市泡瀬4-5-7 イオンタウン泡瀬内の1階,jageocoder
三重県津市河芸町中別保丸垣内100-,34.78767395019531,136.54469299316406,三重県津市河芸町中別保丸垣内100-,jageocoder
静岡県御前崎市池新田5832-1 イオンタウン浜岡内,34.63724136352539,138.13462829589844,静岡県御前崎市池新田5832-1 イオンタウン浜岡内,jageocoder
埼玉県蕨市塚越5-6-35,35.822879791259766,139.7027587890625,埼玉県蕨市塚越5-6-35,jageocoder
香川県観音寺市昭和町1-3-18 イオンタウン観音寺SC内,34.12273025512695,133.65733337402344,香川県観音寺市昭和町1-3-18 イオンタウン観音寺SC内,jageocoder
沖縄県中頭郡読谷村字上地205-1,26.403911590576172,127.73604583740234,沖縄県中頭郡読谷村字上地205-1,jageocoder
栃木県那須塩原市島方455 イオンタウン那須塩原店内,36.93059539794922,140.00645446777344,栃木県那須塩原市島方455 イオンタウン那須塩原店内,jageocoder
岩手県釜石市港町2-1-1 イオンタウン釜石3F,39.272621154785156,141.88624572753906,岩手県釜石市港町2-1-1 イオンタウン釜石3F,jageocoder
青森県青森市浜田字玉川196-11,40.79904556274414,140.75953674316406,青森県青森市浜田字玉川196-11,jageocoder
福島県須賀川市仲の町105 イオンタウン須賀川内,37.297325134277344,140.38450622558594,福島県須賀川市仲の町105 イオンタウン須賀川内,jageocoder
千葉県館山市八幡545-1 イオンタウン館山内,35.006263732910156,139.86297607421875,千葉県館山市八幡545-1 イオンタウン館山内,jageocoder
秋田県北秋田市栄字中綱20-,40.22949981689453,140.38351440429688,秋田県北秋田市栄字中綱20-,jageocoder
青森県つがる市柏稲盛幾世41 イオンモ-ルつがる柏内1F専門店街,40.802757263183594,140.41641235351562,青森県つがる市柏稲盛幾世41 イオンモ-ルつがる柏内1F専門店街,jageocoder
大分県中津市三光佐知1032 イオンモ-ル三光 1階,33.557437896728516,131.195068359375,大分県中津市三光佐知1032 イオンモ-ル三光 1階,jageocoder
青森県上北郡おいらせ町中野平40-1,40.60478210449219,141.4178009033203,青森県上北郡おいらせ町中野平40-1,jageocoder
岐阜県土岐市土岐津町土岐口1372-1 イオンモ-ル土岐 2階,35.3484992980957,137.15383911132812,岐阜県土岐市土岐津町土岐口1372-1 イオンモ-ル土岐 2階,jageocoder
千葉県富津市青木1-5-1,35.33016586303711,139.84765625,千葉県富津市青木1-5-1,jageocoder
奈良県橿原市曲川町7-20-1,34.50555419921875,135.76483154296875,奈良県橿原市曲川町7-20-1,jageocoder
福岡県北九州市戸畑区汐井町2-2,33.89429473876953,130.81878662109375,福岡県北九州市戸畑区汐井町2-2,jageocoder
宮崎県日向市大字日知屋字古田町61-1 イオン日向店2F,32.424495697021484,131.65151977539062,宮崎県日向市大字日知屋字古田町61-1 イオン日向店2F,jageocoder
長崎県長崎市田中町1027-8,32.76961135864258,129.94725036621094,長崎県長崎市田中町1027-8,jageocoder
東京都武蔵村山市伊奈平3-36-1,35.73599624633789,139.37890625,東京都武蔵村山市伊奈平3-36-1,jageocoder
神奈川県海老名市中央3-2-5 2F,35.450538635253906,139.39111328125,神奈川県海老名市中央3-2-5 2F,jageocoder
鳥取県米子市末広町311 米子駅前ショッピングセンタ-3F,35.422794342041016,133.33306884765625,鳥取県米子市末広町311 米子駅前ショッピングセンタ-3F,jageocoder
福岡県北九州市若松区二島1-3-1,33.8913688659668,130.74172973632812,福岡県北九州市若松区二島1-3-1,jageocoder
東京都板橋区蓮根3-8-12 イオン西台店食品館 2階,35.785865783691406,139.67489624023438,東京都板橋区蓮根3-8-12 イオン西台店食品館 2階,jageocoder
宮崎県都城市早鈴町1990-,31.71526527404785,131.07574462890625,宮崎県都城市早鈴町1990-,jageocoder
千葉県千葉市若葉区千城台北3-21-1 イコアス千城台3階,35.62266540527344,140.18917846679688,千葉県千葉市若葉区千城台北3-21-1 イコアス千城台3階,jageocoder
兵庫県神戸市西区森友3-7-3 イズミヤSC神戸玉津 2F,34.66404724121094,134.98313903808594,兵庫県神戸市西区森友3-7-3 イズミヤSC神戸玉津 2F,jageocoder
京都府八幡市八幡一ノ坪23-1,34.86018753051758,135.71205139160156,京都府八幡市八幡一ノ坪23-1,jageocoder
京都府京都市伏見区桃山町西尾12-1 イズミヤ六地蔵店の2階,34.93488311767578,135.79299926757812,京都府京都市伏見区桃山町西尾12-1 イズミヤ六地蔵店の2階,jageocoder
大阪府吹田市山田南1-1 イズミヤ千里丘店別館2階,34.788814544677734,135.53872680664062,大阪府吹田市山田南1-1 イズミヤ千里丘店別館2階,jageocoder
東京都八王子市東浅川町550-1 イ-アス高尾内,35.64353942871094,139.2896270751953,東京都八王子市東浅川町550-1 イ-アス高尾内,jageocoder
愛知県岡崎市羽根町小豆坂3,34.92363739013672,137.17454528808594,愛知県岡崎市羽根町小豆坂3,jageocoder
山形県鶴岡市美咲町3-15,38.73292541503906,139.7994842529297,山形県鶴岡市美咲町3-15,jageocoder
栃木県那須塩原市鍋掛字鍋掛原1087-24 エイトタウン那須塩原内,36.96251678466797,140.06475830078125,栃木県那須塩原市鍋掛字鍋掛原1087-24 エイトタウン那須塩原内,jageocoder
大阪府大阪市城東区蒲生1-9-10 エディオン京橋店3階,34.6992301940918,135.5366973876953,大阪府大阪市城東区蒲生1-9-10 エディオン京橋店3階,jageocoder
大阪府門真市舟田町24-1 エディオン門真2階,34.73585891723633,135.60301208496094,大阪府門真市舟田町24-1 エディオン門真2階,jageocoder
香川県高松市春日町字川尻1028-の1 エディオン高松春日店内,34.32895278930664,134.09188842773438,香川県高松市春日町字川尻1028-の1 エディオン高松春日店内,jageocoder
大阪府高槻市緑町22-8,34.856285095214844,135.64102172851562,大阪府高槻市緑町22-8,jageocoder
熊本県水俣市大黒町2-3-18 エムズシティ1階,32.21050262451172,130.40164184570312,熊本県水俣市大黒町2-3-18 エムズシティ1階,jageocoder
埼玉県幸手市上高野764- エムズタウン内,36.0679817199707,139.7150421142578,埼玉県幸手市上高野764- エムズタウン内,jageocoder
長野県安曇野市三郷温2716-1 エルサあづみ野2階,36.24565124511719,137.88880920410156,長野県安曇野市三郷温2716-1 エルサあづみ野2階,jageocoder
茨城県神栖市大野原4-8-71-2,35.90044021606445,140.63706970214844,茨城県神栖市大野原4-8-71-2,jageocoder
神奈川県横浜市西区みなとみらい6-3-6 オ-ケ-みなとみらい店1F,35.46323776245117,139.63119506835938,神奈川県横浜市西区みなとみらい6-3-6 オ-ケ-みなとみらい店1F,jageocoder
神奈川県藤沢市南藤沢6-23 オ-ケ-藤沢店6F,35.33796691894531,139.49046325683594,神奈川県藤沢市南藤沢6-23 オ-ケ-藤沢店6F,jageocoder
茨城県つくば市小野崎278-1 カインズつくば店内,36.073265075683594,140.10345458984375,茨城県つくば市小野崎278-1 カインズつくば店内,jageocoder
和歌山県和歌山市川辺220 カインズ紀伊川辺内,34.261253356933594,135.26370239257812,和歌山県和歌山市川辺220 カインズ紀伊川辺内,jageocoder
群馬県前橋市小屋原町472-1 ガ-デン前橋内1階,36.356048583984375,139.12904357910156,群馬県前橋市小屋原町472-1 ガ-デン前橋内1階,jageocoder
青森県青森市三好二-1-9 ガ-ラタウン内,40.83238220214844,140.70460510253906,青森県青森市三好二-1-9 ガ-ラタウン内,jageocoder
千葉県松戸市松戸1307-1 キテミテマツド 3F,35.782318115234375,139.89892578125,千葉県松戸市松戸1307-1 キテミテマツド 3F,jageocoder
東京都調布市菊野台1-33-3 キテラタウン調布2F,35.657657623291016,139.56814575195312,東京都調布市菊野台1-33-3 キテラタウン調布2F,jageocoder
愛知県知立市長篠町大山18-1 ギャラリエアピタ知立 本館1F,34.99787521362305,137.05165100097656,愛知県知立市長篠町大山18-1 ギャラリエアピタ知立 本館1F,jageocoder
東京都多摩市永山1-4-,35.62924575805664,139.44813537597656,東京都多摩市永山1-4-,jageocoder
兵庫県芦屋市高浜町6-1 グルメシティ芦屋浜 3F,34.71940612792969,135.31622314453125,兵庫県芦屋市高浜町6-1 グルメシティ芦屋浜 3F,jageocoder
大分県佐伯市鶴岡西町2-176,32.959716796875,131.8666229248047,大分県佐伯市鶴岡西町2-176,jageocoder
千葉県流山市おおたかの森西1-15-3 コトエ流山おおたかの森 1階,35.87240982055664,139.92129516601562,千葉県流山市おおたかの森西1-15-3 コトエ流山おおたかの森 1階,jageocoder
岡山県倉敷市白楽町473 ス-パ-棟2F,34.58809280395508,133.77210998535156,岡山県倉敷市白楽町473 ス-パ-棟2F,jageocoder
岡山県笠岡市富岡114-4 コムプラザ笠岡内,34.49934005737305,133.52838134765625,岡山県笠岡市富岡114-4 コムプラザ笠岡内,jageocoder
大阪府和泉市室堂町824-36 COMBOX光明池内,34.46845626831055,135.47401428222656,大阪府和泉市室堂町824-36 COMBOX光明池内,jageocoder
兵庫県西宮市甲子園高潮町3-3 コロワ甲子園B1F,34.72390365600586,135.3623809814453,兵庫県西宮市甲子園高潮町3-3 コロワ甲子園B1F,jageocoder
兵庫県神戸市垂水区青山台7-6-2 コ-ナンジェ-ムス山2階,34.64531707763672,135.07472229003906,兵庫県神戸市垂水区青山台7-6-2 コ-ナンジェ-ムス山2階,jageocoder
大阪府堺市北区中百舌鳥町3丁428-2 コ-ナン中もずの2階,34.55434036254883,135.5091094970703,大阪府堺市北区中百舌鳥町3丁428-2 コ-ナン中もずの2階,jageocoder
大阪府堺市堺区高須町1-1-5,34.589962005615234,135.48593139648438,大阪府堺市堺区高須町1-1-5,jageocoder
鳥取県米子市河崎3248-1,35.465450286865234,133.3091278076172,鳥取県米子市河崎3248-1,jageocoder
兵庫県西宮市今津出在家町10-68 コ-ナン2館1F奥,34.725223541259766,135.3475341796875,兵庫県西宮市今津出在家町10-68 コ-ナン2館1F奥,jageocoder
東京都足立区扇3-14-10 2階,35.77082443237305,139.77072143554688,東京都足立区扇3-14-10 2階,jageocoder
兵庫県神戸市東灘区魚崎南町4-3-16,34.7097053527832,135.2713165283203,兵庫県神戸市東灘区魚崎南町4-3-16,jageocoder
埼玉県坂戸市薬師町28-1,35.96833038330078,139.39901733398438,埼玉県坂戸市薬師町28-1,jageocoder
兵庫県明石市大久保町大窪2545-8 コ-プ大久保 2階,34.69550323486328,134.94976806640625,兵庫県明石市大久保町大窪2545-8 コ-プ大久保 2階,jageocoder
青森県弘前市大字駅前3-2-1,40.59943771362305,140.4811553955078,青森県弘前市大字駅前3-2-1,jageocoder
北海道札幌市豊平区福住2条1-2-5 シ-ナシ-ナ福住2F,43.020599365234375,141.40402221679688,北海道札幌市豊平区福住2条1-2-5 シ-ナシ-ナ福住2F,jageocoder
福岡県北九州市門司区下馬寄2-27 スパイシ-モ-ル門司2F,33.89694595336914,130.92657470703125,福岡県北九州市門司区下馬寄2-27 スパイシ-モ-ル門司2F,jageocoder
兵庫県神戸市西区井吹台東町1-1 セリオ西神南内2F,34.70040512084961,135.03125,兵庫県神戸市西区井吹台東町1-1 セリオ西神南内2F,jageocoder
兵庫県神戸市東灘区森南町1-5-1 セルバ甲南山手店4F,34.729209899902344,135.29478454589844,兵庫県神戸市東灘区森南町1-5-1 セルバ甲南山手店4F,jageocoder
千葉県市川市南行徳2-20-25 ソコラ南行徳 2階,35.668212890625,139.9052276611328,千葉県市川市南行徳2-20-25 ソコラ南行徳 2階,jageocoder
東京都小金井市本町6-2-30 SOCOLA武蔵小金井クロス2F,35.699440002441406,139.50547790527344,東京都小金井市本町6-2-30 SOCOLA武蔵小金井クロス2F,jageocoder
鹿児島県日置市伊集院町徳重三-9-1 ソレイユタウン伊集院内2F,31.630130767822266,130.39776611328125,鹿児島県日置市伊集院町徳重三-9-1 ソレイユタウン伊集院内2F,jageocoder
福岡県北九州市小倉北区砂津3-1-1 チャチャタウン小倉2階,33.88289260864258,130.88809204101562,福岡県北九州市小倉北区砂津3-1-1 チャチャタウン小倉2階,jageocoder
埼玉県新座市中野二-1-38 専門店棟3階,35.817535400390625,139.5492706298828,埼玉県新座市中野二-1-38 専門店棟3階,jageocoder
埼玉県ふじみ野市うれし野2-10-87 トナリエふじみ野2F,35.85641098022461,139.52285766601562,埼玉県ふじみ野市うれし野2-10-87 トナリエふじみ野2F,jageocoder
大阪府吹田市千里山西6-56-1 トナリエ南千里アネックス4階,34.78594970703125,135.50563049316406,大阪府吹田市千里山西6-56-1 トナリエ南千里アネックス4階,jageocoder
三重県四日市市安島一-3-31 トナリエ四日市4F,34.9688835144043,136.61671447753906,三重県四日市市安島一-3-31 トナリエ四日市4F,jageocoder
奈良県大和高田市幸町3-18 トナリエ大和高田2階,34.51930618286133,135.74363708496094,奈良県大和高田市幸町3-18 トナリエ大和高田2階,jageocoder
佐賀県三養基郡みやき町大字白壁5932 トライアルみやき店内,33.320411682128906,130.47967529296875,佐賀県三養基郡みやき町大字白壁5932 トライアルみやき店内,jageocoder
北海道北斗市七重浜7-14-1 トライアル上磯店内,41.81922149658203,140.69720458984375,北海道北斗市七重浜7-14-1 トライアル上磯店内,jageocoder
福岡県糟屋郡久山町大字山田1169-1,33.65279006958008,130.48895263671875,福岡県糟屋郡久山町大字山田1169-1,jageocoder
神奈川県藤沢市藤沢2-3-15,35.34975051879883,139.47900390625,神奈川県藤沢市藤沢2-3-15,jageocoder
神奈川県横浜市港北区師岡町700- 南棟2階,35.52419662475586,139.6454620361328,神奈川県横浜市港北区師岡町700- 南棟2階,jageocoder
広島県東広島市西条西本町28-30 ハロ-ズ東広島モ-ル2F,34.42633819580078,132.7403564453125,広島県東広島市西条西本町28-30 ハロ-ズ東広島モ-ル2F,jageocoder
長野県上田市上塩尻161-1,36.416324615478516,138.22207641601562,長野県上田市上塩尻161-1,jageocoder
神奈川県横浜市港南区下永谷5-2-1,35.411888122558594,139.5605926513672,神奈川県横浜市港南区下永谷5-2-1,jageocoder
埼玉県さいたま市見沼区春野2-8,35.95737075805664,139.6592254638672,埼玉県さいたま市見沼区春野2-8,jageocoder
神奈川県横浜市金沢区並木2-13-2 ビアレヨコハマ新館内,35.36190414428711,139.6392822265625,神奈川県横浜市金沢区並木2-13-2 ビアレヨコハマ新館内,jageocoder
埼玉県加須市下高柳1-29- ビバモ-ル1-街内,36.11061477661133,139.60739135742188,埼玉県加須市下高柳1-29- ビバモ-ル1-街内,jageocoder
埼玉県蕨市錦町一-12-1,35.822811126708984,139.67779541015625,埼玉県蕨市錦町一-12-1,jageocoder
茨城県石岡市石岡字木比提2222-2 ピアシティ石岡内,36.1946907043457,140.28372192382812,茨城県石岡市石岡字木比提2222-2 ピアシティ石岡内,jageocoder
茨城県稲敷郡阿見町本郷3-1-1 ピアシティ荒川本郷内,36.02359390258789,140.1764373779297,茨城県稲敷郡阿見町本郷3-1-1 ピアシティ荒川本郷内,jageocoder
兵庫県神戸市長田区若松町4-2-15 ピフレ新長田店2階,34.656768798828125,135.14529418945312,兵庫県神戸市長田区若松町4-2-15 ピフレ新長田店2階,jageocoder
愛知県常滑市千代ヶ丘五-100,34.89027786254883,136.8488311767578,愛知県常滑市千代ヶ丘五-100,jageocoder
宮城県仙台市宮城野区東仙台四-6-31 フォレオせんだい宮の杜2F,38.27501678466797,140.90846252441406,宮城県仙台市宮城野区東仙台四-6-31 フォレオせんだい宮の杜2F,jageocoder
福岡県北九州市若松区小敷ひびきの2-1-3 フォレオひびきの2F,33.8906364440918,130.7061309814453,福岡県北九州市若松区小敷ひびきの2-1-3 フォレオひびきの2F,jageocoder
滋賀県大津市一里山7-1-1 フォレオ大津一里山の2階,34.97409439086914,135.9336395263672,滋賀県大津市一里山7-1-1 フォレオ大津一里山の2階,jageocoder
広島県広島市東区温品1-3-2 フォレオ広島東内2階,34.405540466308594,132.50392150878906,広島県広島市東区温品1-3-2 フォレオ広島東内2階,jageocoder
愛媛県新居浜市前田町2-3 フォレオ新居浜SC内,33.958011627197266,133.26722717285156,愛媛県新居浜市前田町2-3 フォレオ新居浜SC内,jageocoder
京都府京田辺市同志社山手1-1-1,34.79548263549805,135.7758026123047,京都府京田辺市同志社山手1-1-1,jageocoder
香川県丸亀市川西町南1280-1 フジグラン丸亀内,34.243186950683594,133.83604431152344,香川県丸亀市川西町南1280-1 フジグラン丸亀内,jageocoder
広島県安芸郡坂町北新地2-3-30 フジグラン安芸 2階,34.34921646118164,132.5181121826172,広島県安芸郡坂町北新地2-3-30 フジグラン安芸 2階,jageocoder
広島県広島市中区宝町2-1,34.386375427246094,132.4650115966797,広島県広島市中区宝町2-1,jageocoder
埼玉県鴻巣市袋90-1,36.09516143798828,139.4663848876953,埼玉県鴻巣市袋90-1,jageocoder
広島県広島市安佐北区三入二-17-38 フジ三入SC内,34.540828704833984,132.5273895263672,広島県広島市安佐北区三入二-17-38 フジ三入SC内,jageocoder
山口県岩国市南岩国町3-22-63 フジ南岩国店の敷地内,34.132720947265625,132.1988525390625,山口県岩国市南岩国町3-22-63 フジ南岩国店の敷地内,jageocoder
香川県さぬき市志度2431-1,34.315364837646484,134.17135620117188,香川県さぬき市志度2431-1,jageocoder
愛媛県伊予郡砥部町重光239- フジ砥部店2F,33.7849006652832,132.78553771972656,愛媛県伊予郡砥部町重光239- フジ砥部店2F,jageocoder
高知県須崎市西町2-7-15 フジ須崎店 2階,33.38806915283203,133.2792205810547,高知県須崎市西町2-7-15 フジ須崎店 2階,jageocoder
大分県大分市大字市1052,33.187171936035156,131.57150268554688,大分県大分市大字市1052,jageocoder
広島県福山市三吉町4-10-22,34.49531173706055,133.3787384033203,広島県福山市三吉町4-10-22,jageocoder
熊本県熊本市中央区萩原町2-3 フレスポくまもく内,32.783546447753906,130.71177673339844,熊本県熊本市中央区萩原町2-3 フレスポくまもく内,jageocoder
岩手県一関市中里字在家11-1 フレスポ一関内,38.93874740600586,141.14984130859375,岩手県一関市中里字在家11-1 フレスポ一関内,jageocoder
長野県上田市中丸子1682-16 4/11(土)をもちまして閉店致します。 永らくのご愛顧、誠にありがとうございました。,36.336082458496094,138.27174377441406,長野県上田市中丸子1682-16 4/11(土)をもちまして閉店致します。 永らくのご愛顧、誠にありがとうございました。,jageocoder
埼玉県八潮市大瀬一-1-3 フレスポ八潮ショッピングセンタ-2階,35.80879592895508,139.84396362304688,埼玉県八潮市大瀬一-1-3 フレスポ八潮ショッピングセンタ-2階,jageocoder
鹿児島県霧島市国分広瀬2-4-1,31.72319221496582,130.75604248046875,鹿児島県霧島市国分広瀬2-4-1,jageocoder
秋田県秋田市御所野元町1-1-14 フレスポ御所野内,39.662803649902344,140.1640167236328,秋田県秋田市御所野元町1-1-14 フレスポ御所野内,jageocoder
大分県大分市王子北町5-4,33.24475860595703,131.59619140625,大分県大分市王子北町5-4,jageocoder
秋田県由利本荘市石脇字田頭159-1 フレスポ本荘内,39.389732360839844,140.0290985107422,秋田県由利本荘市石脇字田頭159-1 フレスポ本荘内,jageocoder
大阪府東大阪市稲田新町3-9-64 フレスポ東大阪 2F,34.692264556884766,135.59140014648438,大阪府東大阪市稲田新町3-9-64 フレスポ東大阪 2F,jageocoder
愛媛県松山市中央2-70-1 フレスポ松山内,33.85597229003906,132.74620056152344,愛媛県松山市中央2-70-1 フレスポ松山内,jageocoder
奈良県桜井市東新堂342-1,34.521732330322266,135.83395385742188,奈良県桜井市東新堂342-1,jageocoder
秋田県横手市安田向田183,39.29793930053711,140.555908203125,秋田県横手市安田向田183,jageocoder
広島県福山市神辺町川北1533 フレスポ神辺SC内,34.54055404663086,133.36334228515625,広島県福山市神辺町川北1533 フレスポ神辺SC内,jageocoder
長崎県長崎市小浦町714-8 フレスポ福田WEST内,32.748783111572266,129.8245086669922,長崎県長崎市小浦町714-8 フレスポ福田WEST内,jageocoder
愛媛県西条市新田字市塚新田156-,33.93052673339844,133.19117736816406,愛媛県西条市新田字市塚新田156-,jageocoder
広島県広島市安佐南区伴南4-1-1,34.446041107177734,132.37857055664062,広島県広島市安佐南区伴南4-1-1,jageocoder
兵庫県赤穂市中広2-8 フレスポ赤穂内,34.740108489990234,134.3887939453125,兵庫県赤穂市中広2-8 フレスポ赤穂内,jageocoder
長崎県長崎市深堀町1-145-24,32.682220458984375,129.82826232910156,長崎県長崎市深堀町1-145-24,jageocoder
大阪府大阪市西区立売堀6-3-8 フレスポ阿波座2階,34.67945098876953,135.4847412109375,大阪府大阪市西区立売堀6-3-8 フレスポ阿波座2階,jageocoder
徳島県三好市池田町サラダ1612-2 フレスポ阿波池田店内,34.02692413330078,133.80694580078125,徳島県三好市池田町サラダ1612-2 フレスポ阿波池田店内,jageocoder
佐賀県鳥栖市本鳥栖町537-1 フレスポ鳥栖内2階(旧ジョイフルタウン内),33.37596130371094,130.51742553710938,佐賀県鳥栖市本鳥栖町537-1 フレスポ鳥栖内2階(旧ジョイフルタウン内),jageocoder
福岡県北九州市八幡西区桜ヶ丘町3-10 フレスポ黒崎内,33.86572265625,130.75450134277344,福岡県北九州市八幡西区桜ヶ丘町3-10 フレスポ黒崎内,jageocoder
滋賀県大津市二本松1-1 ブランチ大津京2階,35.029720306396484,135.86471557617188,滋賀県大津市二本松1-1 ブランチ大津京2階,jageocoder
神奈川県横浜市金沢区鳥浜町1-1,35.38026809692383,139.63661193847656,神奈川県横浜市金沢区鳥浜町1-1,jageocoder
兵庫県神戸市中央区脇浜海岸通2-2-2 ブルメ-ルHAT神戸 1F,34.7000732421875,135.2152557373047,兵庫県神戸市中央区脇浜海岸通2-2-2 ブルメ-ルHAT神戸 1F,jageocoder
愛知県豊川市諏訪3-300- 2階,34.82582473754883,137.37030029296875,愛知県豊川市諏訪3-300- 2階,jageocoder
静岡県浜松市浜名区貴布祢1200- プレ葉ウォ-ク浜北2F,34.7972412109375,137.77928161621094,静岡県浜松市浜名区貴布祢1200- プレ葉ウォ-ク浜北2F,jageocoder
千葉県千葉市緑区古市場町906-29,35.541282653808594,140.1537322998047,千葉県千葉市緑区古市場町906-29,jageocoder
埼玉県日高市森戸新田藤久保88-5,35.9149169921875,139.3728790283203,埼玉県日高市森戸新田藤久保88-5,jageocoder
群馬県伊勢崎市宮子町3423-15,36.331085205078125,139.16162109375,群馬県伊勢崎市宮子町3423-15,jageocoder
群馬県前橋市上泉町680-1,36.397666931152344,139.10035705566406,群馬県前橋市上泉町680-1,jageocoder
茨城県古河市大堤682 ベイシア古河総和内,36.18287658691406,139.7167510986328,茨城県古河市大堤682 ベイシア古河総和内,jageocoder
福島県二本松市油井福岡140 ベイシア棟内,37.613311767578125,140.46287536621094,福島県二本松市油井福岡140 ベイシア棟内,jageocoder
埼玉県大里郡寄居町桜沢2916,36.131866455078125,139.20437622070312,埼玉県大里郡寄居町桜沢2916,jageocoder
千葉県富里市七栄532,35.75050354003906,140.3098907470703,千葉県富里市七栄532,jageocoder
千葉県東金市道庭字三斗蒔495-2,35.580230712890625,140.381103515625,千葉県東金市道庭字三斗蒔495-2,jageocoder
福島県白河市老久保28 ベイシア棟内,37.11668014526367,140.19979858398438,福島県白河市老久保28 ベイシア棟内,jageocoder
千葉県野田市桜の里2-1,35.954246520996094,139.84689331054688,千葉県野田市桜の里2-1,jageocoder
千葉県長生郡長生村金田3237,35.382965087890625,140.35540771484375,千葉県長生郡長生村金田3237,jageocoder
茨城県高萩市下手綱ヤワコ田1058- ベイシア高萩モ-ル内,36.72902297973633,140.7155303955078,茨城県高萩市下手綱ヤワコ田1058- ベイシア高萩モ-ル内,jageocoder
静岡県静岡市清水区駒越北町8-1,34.985313415527344,138.50192260742188,静岡県静岡市清水区駒越北町8-1,jageocoder
長野県上伊那郡箕輪町三日町933-1,35.89146423339844,137.9879913330078,長野県上伊那郡箕輪町三日町933-1,jageocoder
東京都調布市若葉町2-1-7 島忠ホ-ムズ2F,35.65909194946289,139.5862579345703,東京都調布市若葉町2-1-7 島忠ホ-ムズ2F,jageocoder
大阪府寝屋川市日新町3-15 ホ-ムズ寝屋川店2階,34.78196716308594,135.6203155517578,大阪府寝屋川市日新町3-15 ホ-ムズ寝屋川店2階,jageocoder
神奈川県川崎市川崎区中瀬3-20-20 島忠ホ-ムズ内,35.5386848449707,139.7333526611328,神奈川県川崎市川崎区中瀬3-20-20 島忠ホ-ムズ内,jageocoder
神奈川県横浜市中区新山下2-12-34 島忠ホ-ムズ新山下2F,35.439762115478516,139.66104125976562,神奈川県横浜市中区新山下2-12-34 島忠ホ-ムズ新山下2F,jageocoder
東京都江戸川区東葛西9-3-6 ホ-ムズ葛西店2階,35.65385818481445,139.88233947753906,東京都江戸川区東葛西9-3-6 ホ-ムズ葛西店2階,jageocoder
愛知県稲沢市朝府町4-1 ボナンザシティヨシヅヤ新稲沢店2F,35.25145721435547,136.7791290283203,愛知県稲沢市朝府町4-1 ボナンザシティヨシヅヤ新稲沢店2F,jageocoder
東京都足立区千住橋戸町1-13 ポンテポルタ千住2F,35.74215316772461,139.79525756835938,東京都足立区千住橋戸町1-13 ポンテポルタ千住2F,jageocoder
静岡県富士市八幡町6-3 MUTSUAIMALL2階,35.1609992980957,138.6500701904297,静岡県富士市八幡町6-3 MUTSUAIMALL2階,jageocoder
沖縄県島尻郡与那原町東浜68-1,26.206018447875977,127.7637710571289,沖縄県島尻郡与那原町東浜68-1,jageocoder
岡山県倉敷市松島1154-2 マルナカ倉敷マスカット 2階,34.62789535522461,133.802490234375,岡山県倉敷市松島1154-2 マルナカ倉敷マスカット 2階,jageocoder
愛媛県西条市周布191,33.90874481201172,133.06968688964844,愛媛県西条市周布191,jageocoder
高知県香南市野市町西野2700-2 マルナカ野市 2階,33.562660217285156,133.7014617919922,高知県香南市野市町西野2700-2 マルナカ野市 2階,jageocoder
埼玉県川口市本町2-7-25 ミエル川口1階,35.80061340332031,139.7279510498047,埼玉県川口市本町2-7-25 ミエル川口1階,jageocoder
山口県山口市黒川82-1,34.13669204711914,131.4332733154297,山口県山口市黒川82-1,jageocoder
群馬県高崎市倉賀野町4691-1,36.30099105834961,139.0552978515625,群馬県高崎市倉賀野町4691-1,jageocoder
静岡県掛川市高御所305-2,34.76606750488281,137.9849853515625,静岡県掛川市高御所305-2,jageocoder
奈良県奈良市二条大路南1-3-1 ミ・ナ-ラ3F,34.68450164794922,135.8029022216797,奈良県奈良市二条大路南1-3-1 ミ・ナ-ラ3F,jageocoder
東京都町田市原町田4-1-17 ミ-ナ町田6階,35.54071044921875,139.44888305664062,東京都町田市原町田4-1-17 ミ-ナ町田6階,jageocoder
愛知県豊田市西中山町道貝101-,35.150875091552734,137.18035888671875,愛知県豊田市西中山町道貝101-,jageocoder
大阪府大阪市西淀川区大和田2-2-43 メラ-ド大和田内 2F,34.705875396728516,135.44642639160156,大阪府大阪市西淀川区大和田2-2-43 メラ-ド大和田内 2F,jageocoder
秋田県潟上市飯田川飯塚字上堤敷69-1 メルシティ潟上内,39.903438568115234,140.0836944580078,秋田県潟上市飯田川飯塚字上堤敷69-1 メルシティ潟上内,jageocoder
神奈川県横浜市都筑区中川中央1-31-1 モザイクモ-ル港北4階,35.555015563964844,139.5779571533203,神奈川県横浜市都筑区中川中央1-31-1 モザイクモ-ル港北4階,jageocoder
佐賀県佐賀市巨勢町大字牛島730- モラ-ジュ佐賀内 2F,33.25248718261719,130.3186798095703,佐賀県佐賀市巨勢町大字牛島730- モラ-ジュ佐賀内 2F,jageocoder
埼玉県久喜市菖蒲町菖蒲6005-1 モラ-ジュ菖蒲内1階(ナフコさん向かい),36.07542037963867,139.61105346679688,埼玉県久喜市菖蒲町菖蒲6005-1 モラ-ジュ菖蒲内1階(ナフコさん向かい),jageocoder
岐阜県本巣市三橋1100 モレラ岐阜の2階,35.454280853271484,136.67532348632812,岐阜県本巣市三橋1100 モレラ岐阜の2階,jageocoder
愛知県名古屋市中川区中島新町2-202- ヤマナカ新中島店 2F,35.127281188964844,136.85386657714844,愛知県名古屋市中川区中島新町2-202- ヤマナカ新中島店 2F,jageocoder
千葉県成田市公津の杜4-5-3 ユアエルム成田1階,35.7594108581543,140.29672241210938,千葉県成田市公津の杜4-5-3 ユアエルム成田1階,jageocoder
愛知県海部郡蟹江町桜一-212- ヨシヅヤJR蟹江駅前店1F,35.14352798461914,136.79747009277344,愛知県海部郡蟹江町桜一-212- ヨシヅヤJR蟹江駅前店1F,jageocoder
岐阜県不破郡垂井町表佐字大持野55-1,35.36552047729492,136.53909301757812,岐阜県不破郡垂井町表佐字大持野55-1,jageocoder
愛知県名古屋市中川区宮脇町2-11-,35.13507080078125,136.86795043945312,愛知県名古屋市中川区宮脇町2-11-,jageocoder
愛知県津島市津島北新開351- ヨシヅヤ津島本店 3F,35.17525100708008,136.74703979492188,愛知県津島市津島北新開351- ヨシヅヤ津島本店 3F,jageocoder
愛知県清須市西市場五-5-3 ヨシヅヤ清洲店3階,35.21896743774414,136.8284454345703,愛知県清須市西市場五-5-3 ヨシヅヤ清洲店3階,jageocoder
東京都武蔵野市吉祥寺本町1-19-1,35.70460510253906,139.5811767578125,東京都武蔵野市吉祥寺本町1-19-1,jageocoder
宮城県仙台市泉区市名坂字中道100-9,38.31599807739258,140.90562438964844,宮城県仙台市泉区市名坂字中道100-9,jageocoder
茨城県つくば市みどりの中央11-7,36.027130126953125,140.0574951171875,茨城県つくば市みどりの中央11-7,jageocoder
愛知県春日井市小野町2-1-1 ライフガ-デン勝川2F,35.22855758666992,136.9615936279297,愛知県春日井市小野町2-1-1 ライフガ-デン勝川2F,jageocoder
千葉県浦安市富岡三-3-2-2,35.64329147338867,139.90199279785156,千葉県浦安市富岡三-3-2-2,jageocoder
福岡県遠賀郡水巻町樋口3-9,33.870933532714844,130.6893768310547,福岡県遠賀郡水巻町樋口3-9,jageocoder
石川県白山市倉光五-14-,36.5158576965332,136.56692504882812,石川県白山市倉光五-14-,jageocoder
愛知県大府市柊山町1-98- リソラ大府ショッピングテラス1F,35.01651382446289,136.95758056640625,愛知県大府市柊山町1-98- リソラ大府ショッピングテラス1F,jageocoder
新潟県長岡市喜多町2971-,37.45408630371094,138.80718994140625,新潟県長岡市喜多町2971-,jageocoder
大阪府八尾市光町2-60 リノアス八尾3階,34.6297492980957,135.60533142089844,大阪府八尾市光町2-60 リノアス八尾3階,jageocoder
東京都西東京市田無町2-1-1 リヴィン田無店4F,35.72807312011719,139.53976440429688,東京都西東京市田無町2-1-1 リヴィン田無店4F,jageocoder
神奈川県横浜市泉区上飯田町2060 ロピアいずみ中央店2階,35.42148208618164,139.48410034179688,神奈川県横浜市泉区上飯田町2060 ロピアいずみ中央店2階,jageocoder
千葉県千葉市稲毛区長沼町330-50 ワンズモ-ル2階,35.65730285644531,140.11744689941406,千葉県千葉市稲毛区長沼町330-50 ワンズモ-ル2階,jageocoder
愛知県一宮市三条郷東藤21-1,35.3077278137207,136.76467895507812,愛知県一宮市三条郷東藤21-1,jageocoder
愛知県一宮市浜町4-6,35.3090934753418,136.81253051757812,愛知県一宮市浜町4-6,jageocoder
広島県三原市円一町2-6-17,34.39265441894531,133.0767364501953,広島県三原市円一町2-6-17,jageocoder
東京都日野市旭が丘6-7-5 三和旭が丘店の2階,35.660888671875,139.36412048339844,東京都日野市旭が丘6-7-5 三和旭が丘店の2階,jageocoder
神奈川県川崎市麻生区百合丘1-16 三和百合ヶ丘店 B館 1階,35.6057014465332,139.51577758789062,神奈川県川崎市麻生区百合丘1-16 三和百合ヶ丘店 B館 1階,jageocoder
神奈川県相模原市南区下溝598-1 三和麻溝店2階,35.53010940551758,139.3765869140625,神奈川県相模原市南区下溝598-1 三和麻溝店2階,jageocoder
静岡県三島市梅名317-5,35.091224670410156,138.9289093017578,静岡県三島市梅名317-5,jageocoder
兵庫県三木市大村505-1,34.80562210083008,134.9681396484375,兵庫県三木市大村505-1,jageocoder
兵庫県三木市志染町青山5-30-6,34.78533935546875,135.0340118408203,兵庫県三木市志染町青山5-30-6,jageocoder
新潟県三条市荒町2-22-14,37.64057540893555,138.9533233642578,新潟県三条市荒町2-22-14,jageocoder
広島県三次市南畑敷町471-3,34.80501937866211,132.878173828125,広島県三次市南畑敷町471-3,jageocoder
青森県三沢市南町1-31-2869,40.67356872558594,141.36679077148438,青森県三沢市南町1-31-2869,jageocoder
兵庫県三田市けやき台1-5-,34.9068489074707,135.18804931640625,兵庫県三田市けやき台1-5-,jageocoder
東京都三鷹市上連雀7-32-20,35.690399169921875,139.5506134033203,東京都三鷹市上連雀7-32-20,jageocoder
埼玉県上尾市谷津2-1-1 上尾ショ-サンプラザ4F,35.971439361572266,139.5896759033203,埼玉県上尾市谷津2-1-1 上尾ショ-サンプラザ4F,jageocoder
北海道江別市上江別427-32,43.10005187988281,141.5483856201172,北海道江別市上江別427-32,jageocoder
長野県上田市常入1-13-54,36.38943862915039,138.2662353515625,長野県上田市常入1-13-54,jageocoder
新潟県上越市とよば239-の1,37.10322952270508,138.27798461914062,新潟県上越市とよば239-の1,jageocoder
新潟県上越市下門前1691-2,37.156124114990234,138.25686645507812,新潟県上越市下門前1691-2,jageocoder
茨城県下妻市古沢4-2,36.181941986083984,139.97499084472656,茨城県下妻市古沢4-2,jageocoder
山口県下関市長府才川1-42-30,34.0245475769043,131.00718688964844,山口県下関市長府才川1-42-30,jageocoder
東京都世田谷区千歳台5-22-17,35.658260345458984,139.61183166503906,東京都世田谷区千歳台5-22-17,jageocoder
神奈川県大和市下鶴間1785-2,35.50035858154297,139.45343017578125,神奈川県大和市下鶴間1785-2,jageocoder
北海道標津郡中標津町南町3-10 東武サウスヒルズ内,43.5356330871582,144.97821044921875,北海道標津郡中標津町南町3-10 東武サウスヒルズ内,jageocoder
香川県丸亀市山北町50-1,34.26823806762695,133.80062866210938,香川県丸亀市山北町50-1,jageocoder
兵庫県丹波市氷上町横田300-,35.15642166137695,135.0485076904297,兵庫県丹波市氷上町横田300-,jageocoder
岩手県久慈市川崎町16-34,40.19162368774414,141.77720642089844,岩手県久慈市川崎町16-34,jageocoder
福岡県久留米市御井町字大銃場2228-4,33.299232482910156,130.55067443847656,福岡県久留米市御井町字大銃場2228-4,jageocoder
福岡県久留米市三潴町福光562-2,33.2466926574707,130.4565887451172,福岡県久留米市三潴町福光562-2,jageocoder
福岡県久留米市梅満町490-2,33.31072998046875,130.5035400390625,福岡県久留米市梅満町490-2,jageocoder
京都府亀岡市篠町篠杢殿林12-1,35.00177764892578,135.60630798339844,京都府亀岡市篠町篠杢殿林12-1,jageocoder
岩手県二戸市金田一字八ツ長38-13,40.31022644042969,141.30804443359375,岩手県二戸市金田一字八ツ長38-13,jageocoder
兵庫県明石市二見町西二見31-9,34.71334457397461,134.8898162841797,兵庫県明石市二見町西二見31-9,jageocoder
東京都品川区西五反田7-22-17 TOCビル地下1F,35.62141799926758,139.7196044921875,東京都品川区西五反田7-22-17 TOCビル地下1F,jageocoder
京都府京都市右京区西院月双町98,34.996822357177734,135.72048950195312,京都府京都市右京区西院月双町98,jageocoder
京都府京都市下京区烏丸通七条下ル東塩小路町590-2 京都ヨドバシ4階,34.98822021484375,135.75894165039062,京都府京都市下京区烏丸通七条下ル東塩小路町590-2 京都ヨドバシ4階,jageocoder
京都府京都市西京区川島調子町11-1,34.97303009033203,135.6982879638672,京都府京都市西京区川島調子町11-1,jageocoder
愛媛県今治市山路884-2,34.05817413330078,132.9728240966797,愛媛県今治市山路884-2,jageocoder
愛媛県今治市衣干町四-4-6,34.04513931274414,133.01300048828125,愛媛県今治市衣干町四-4-6,jageocoder
宮城県仙台市泉区南中山1-42-1,38.297637939453125,140.82566833496094,宮城県仙台市泉区南中山1-42-1,jageocoder
宮城県仙台市青葉区栗生6-11-4,38.26832962036133,140.78233337402344,宮城県仙台市青葉区栗生6-11-4,jageocoder
宮城県仙台市若林区蒲町東19-の7,38.24406433105469,140.93472290039062,宮城県仙台市若林区蒲町東19-の7,jageocoder
佐賀県伊万里市二里町八谷搦字伊万里一本松1148-,33.27821731567383,129.87049865722656,佐賀県伊万里市二里町八谷搦字伊万里一本松1148-,jageocoder
兵庫県伊丹市鴻池町7-3-10,34.80443572998047,135.38418579101562,兵庫県伊丹市鴻池町7-3-10,jageocoder
兵庫県伊丹市行基町1-103-,34.7814826965332,135.40780639648438,兵庫県伊丹市行基町1-103-,jageocoder
群馬県伊勢崎市田部井町3-180-2,36.34968185424805,139.25601196289062,群馬県伊勢崎市田部井町3-180-2,jageocoder
群馬県伊勢崎市南千木町5202-3 西友楽市伊勢崎茂呂SC内,36.29689025878906,139.2151641845703,群馬県伊勢崎市南千木町5202-3 西友楽市伊勢崎茂呂SC内,jageocoder
群馬県伊勢崎市連取町1475-1,36.318443298339844,139.18299865722656,群馬県伊勢崎市連取町1475-1,jageocoder
埼玉県北足立郡伊奈町寿3-138,36.00792694091797,139.6065673828125,埼玉県北足立郡伊奈町寿3-138,jageocoder
兵庫県神戸市西区北別府5-1-5,34.671653747558594,135.00697326660156,兵庫県神戸市西区北別府5-1-5,jageocoder
静岡県伊東市川奈1259-2,34.94486999511719,139.1182403564453,静岡県伊東市川奈1259-2,jageocoder
福島県伊達市保原町字竹内町71,37.81477737426758,140.54750061035156,福島県伊達市保原町字竹内町71,jageocoder
北海道伊達市舟岡町205-24,42.46525573730469,140.87986755371094,北海道伊達市舟岡町205-24,jageocoder
長野県伊那市下新田3030-1,35.82771682739258,137.95797729492188,長野県伊那市下新田3030-1,jageocoder
福島県会津若松市町北町大字始字宮前15-1 会津若松アピオ内,37.51844024658203,139.91531372070312,福島県会津若松市町北町大字始字宮前15-1 会津若松アピオ内,jageocoder
福島県会津若松市南花畑2-65,37.48554229736328,139.92237854003906,福島県会津若松市南花畑2-65,jageocoder
大阪府大阪市住吉区遠里小野2-10-32,34.59852981567383,135.49786376953125,大阪府大阪市住吉区遠里小野2-10-32,jageocoder
長崎県佐世保市矢峰町223-1,33.21200180053711,129.74444580078125,長崎県佐世保市矢峰町223-1,jageocoder
長野県小諸市御影新田2291-1,36.30104064941406,138.46681213378906,長野県小諸市御影新田2291-1,jageocoder
千葉県佐倉市上座字西谷津665-1,35.7252082824707,140.15782165527344,千葉県佐倉市上座字西谷津665-1,jageocoder
千葉県佐倉市石川字奥行台644-1,35.6968879699707,140.22915649414062,千葉県佐倉市石川字奥行台644-1,jageocoder
千葉県香取市佐原イ4215-1,35.900997161865234,140.49163818359375,千葉県香取市佐原イ4215-1,jageocoder
新潟県佐渡市市野沢字金山151,38.00910186767578,138.33851623535156,新潟県佐渡市市野沢字金山151,jageocoder
佐賀県佐賀市鍋島町大字八戸3181-2,33.25559616088867,130.26683044433594,佐賀県佐賀市鍋島町大字八戸3181-2,jageocoder
栃木県佐野市高萩町字溜ノ上693-1,36.304779052734375,139.5944061279297,栃木県佐野市高萩町字溜ノ上693-1,jageocoder
北海道余市郡余市町黒川町8-49-1,43.18488693237305,140.7939453125,北海道余市郡余市町黒川町8-49-1,jageocoder
東京都練馬区南大泉3-13-31 いなげや2F,35.745262145996094,139.57130432128906,東京都練馬区南大泉3-13-31 いなげや2F,jageocoder
長野県中野市一本木11,36.75840377807617,138.3700408935547,長野県中野市一本木11,jageocoder
鳥取県倉吉市河北町102,35.46602249145508,133.84494018554688,鳥取県倉吉市河北町102,jageocoder
岡山県倉敷市平田81-1,34.614662170410156,133.77305603027344,岡山県倉敷市平田81-1,jageocoder
岡山県倉敷市玉島乙島7121-1,34.534542083740234,133.68148803710938,岡山県倉敷市玉島乙島7121-1,jageocoder
東京都八王子市元八王子町2-1975 2/20(金)をもちまして閉店致しました。 永らくのご愛顧、誠にありがとうございました。 -,35.6549186706543,139.28176879882812,東京都八王子市元八王子町2-1975 2/20(金)をもちまして閉店致しました。 永らくのご愛顧、誠にありがとうございました。 -,jageocoder
山口県光市木園1-5-28,33.97780227661133,131.92991638183594,山口県光市木園1-5-28,jageocoder
埼玉県入間市東藤沢2-1-9,35.82218551635742,139.41383361816406,埼玉県入間市東藤沢2-1-9,jageocoder
熊本県八代市田中町465-1,32.518245697021484,130.60787963867188,熊本県八代市田中町465-1,jageocoder
千葉県八千代市大和田新田111-8,35.722110748291016,140.0839385986328,千葉県八千代市大和田新田111-8,jageocoder
大阪府八尾市太田三-223-1,34.592376708984375,135.58694458007812,大阪府八尾市太田三-223-1,jageocoder
大阪府八尾市跡部本町1-1-40,34.61843490600586,135.58541870117188,大阪府八尾市跡部本町1-1-40,jageocoder
福岡県北九州市八幡西区下上津役4-21-1,33.826107025146484,130.74456787109375,福岡県北九州市八幡西区下上津役4-21-1,jageocoder
大阪府東大阪市若江西新町1-14-1,34.66257858276367,135.59613037109375,大阪府東大阪市若江西新町1-14-1,jageocoder
青森県八戸市長根四-5-24,40.51818084716797,141.47982788085938,青森県八戸市長根四-5-24,jageocoder
青森県八戸市新井田西2-24-23,40.49939727783203,141.52056884765625,青森県八戸市新井田西2-24-23,jageocoder
滋賀県東近江市中小路町字石倉609,35.097774505615234,136.2273712158203,滋賀県東近江市中小路町字石倉609,jageocoder
埼玉県八潮市大字南後谷420-1,35.82863235473633,139.81814575195312,埼玉県八潮市大字南後谷420-1,jageocoder
東京都八王子市西片倉2-6-7,35.63478088378906,139.33042907714844,東京都八王子市西片倉2-6-7,jageocoder
千葉県八街市富山1314-3425,35.67488479614258,140.29415893554688,千葉県八街市富山1314-3425,jageocoder
新潟県南魚沼市余川3100 イオン六日町店敷地内,37.08113098144531,138.87864685058594,新潟県南魚沼市余川3100 イオン六日町店敷地内,jageocoder
島根県出雲市今市町87- ラピタ本店2階,35.36848449707031,132.7538299560547,島根県出雲市今市町87- ラピタ本店2階,jageocoder
島根県出雲市大塚町794-1,35.37621307373047,132.75265502929688,島根県出雲市大塚町794-1,jageocoder
島根県出雲市平田町7155 シェルピア中ノ島内,35.440128326416016,132.82359313964844,島根県出雲市平田町7155 シェルピア中ノ島内,jageocoder
北海道函館市美原1-3-1 2F,41.81375503540039,140.758544921875,北海道函館市美原1-3-1 2F,jageocoder
北海道函館市亀田港町39-13,41.8094482421875,140.72125244140625,北海道函館市亀田港町39-13,jageocoder
北海道函館市広野町5-10,41.7754020690918,140.76654052734375,北海道函館市広野町5-10,jageocoder
北海道函館市石川町326-16,41.825584411621094,140.74050903320312,北海道函館市石川町326-16,jageocoder
大分県別府市山の手町9-16,33.281341552734375,131.4852294921875,大分県別府市山の手町9-16,jageocoder
宮城県宮城郡利府町加瀬字新前谷地10-1,38.32953643798828,140.97645568847656,宮城県宮城郡利府町加瀬字新前谷地10-1,jageocoder
福岡県糸島市波多江駅南1-6-1,33.56240463256836,130.22679138183594,福岡県糸島市波多江駅南1-6-1,jageocoder
群馬県前橋市六供町二-31-32,36.374664306640625,139.07073974609375,群馬県前橋市六供町二-31-32,jageocoder
兵庫県加古川市別府町石町95-1,34.72731018066406,134.84652709960938,兵庫県加古川市別府町石町95-1,jageocoder
兵庫県加古川市加古川町北在家755-1,34.75672149658203,134.8335418701172,兵庫県加古川市加古川町北在家755-1,jageocoder
埼玉県上尾市上平中央三-38-7,35.99446487426758,139.58511352539062,埼玉県上尾市上平中央三-38-7,jageocoder
北海道北広島市虹ヶ丘7-2-1,43.0217399597168,141.48805236816406,北海道北広島市虹ヶ丘7-2-1,jageocoder
埼玉県北本市本宿2-69-,36.02880859375,139.5388946533203,埼玉県北本市本宿2-69-,jageocoder
北海道北見市西富町1-12-18,43.799007415771484,143.86721801757812,北海道北見市西富町1-12-18,jageocoder
沖縄県中頭郡北谷町北谷2-18-4,26.3056697845459,127.7607192993164,沖縄県中頭郡北谷町北谷2-18-4,jageocoder
岡山県岡山市北区北長瀬表町1-2-103,34.65198516845703,133.8933868408203,岡山県岡山市北区北長瀬表町1-2-103,jageocoder
兵庫県神戸市須磨区多井畑字渋人谷上4-1 ミリオンタウン2階,34.66811752319336,135.10317993164062,兵庫県神戸市須磨区多井畑字渋人谷上4-1 ミリオンタウン2階,jageocoder
青森県十和田市東一-町1-30,40.62141418457031,141.2123260498047,青森県十和田市東一-町1-30,jageocoder
長野県千曲市粟佐1212-1,36.539466857910156,138.120849609375,長野県千曲市粟佐1212-1,jageocoder
北海道千歳市住吉4-14-20,42.831077575683594,141.6720428466797,北海道千歳市住吉4-14-20,jageocoder
北海道千歳市新富3-23-11,42.83781433105469,141.63763427734375,北海道千歳市新富3-23-11,jageocoder
千葉県千葉市緑区あすみが丘東3-1-9,35.52499008178711,140.28074645996094,千葉県千葉市緑区あすみが丘東3-1-9,jageocoder
千葉県印西市中央南2-5- アクロスプラザ千葉ニュ-タウン南内,35.798500061035156,140.11329650878906,千葉県印西市中央南2-5- アクロスプラザ千葉ニュ-タウン南内,jageocoder
千葉県柏市北柏4-8-2,35.869049072265625,139.98858642578125,千葉県柏市北柏4-8-2,jageocoder
千葉県千葉市中央区末広5-6-1,35.58772659301758,140.13026428222656,千葉県千葉市中央区末広5-6-1,jageocoder
千葉県千葉市花見川区作新台4-17-2,35.6899299621582,140.07876586914062,千葉県千葉市花見川区作新台4-17-2,jageocoder
愛知県半田市柊町5-6-8,34.90049362182617,136.91024780273438,愛知県半田市柊町5-6-8,jageocoder
兵庫県南あわじ市広田広田字大御門586,34.32932662963867,134.83753967285156,兵庫県南あわじ市広田広田字大御門586,jageocoder
鹿児島県南さつま市加世田本町16-2,31.41996955871582,130.32260131835938,鹿児島県南さつま市加世田本町16-2,jageocoder
山梨県南アルプス市十五所684-1 南アルプスガ-デン内,35.618309020996094,138.47055053710938,山梨県南アルプス市十五所684-1 南アルプスガ-デン内,jageocoder
埼玉県さいたま市中央区鈴谷2-667,35.86989974975586,139.62832641601562,埼玉県さいたま市中央区鈴谷2-667,jageocoder
千葉県流山市南流山4-3-5,35.84027862548828,139.9035186767578,千葉県流山市南流山4-3-5,jageocoder
東京都町田市南町田5-1-7,35.51491928100586,139.47396850585938,東京都町田市南町田5-1-7,jageocoder
山形県南陽市郡山561-2,38.04315185546875,140.15611267089844,山形県南陽市郡山561-2,jageocoder
福岡県福岡市博多区井相田1-7-37,33.55739974975586,130.4608917236328,福岡県福岡市博多区井相田1-7-37,jageocoder
神奈川県厚木市下荻野1393-5,35.47798538208008,139.34017944335938,神奈川県厚木市下荻野1393-5,jageocoder
神奈川県厚木市愛甲三-8-29,35.423465728759766,139.34896850585938,神奈川県厚木市愛甲三-8-29,jageocoder
福島県南相馬市原町区高見町1-123-1,37.639564514160156,140.98406982421875,福島県南相馬市原町区高見町1-123-1,jageocoder
茨城県取手市藤代579-,35.92198944091797,140.1139678955078,茨城県取手市藤代579-,jageocoder
宮城県大崎市古川旭1-14-18,38.56768035888672,140.97378540039062,宮城県大崎市古川旭1-14-18,jageocoder
宮城県大崎市古川穂波3-4-1,38.56550216674805,140.94625854492188,宮城県大崎市古川穂波3-4-1,jageocoder
茨城県古河市松並二-18-23,36.207855224609375,139.70919799804688,茨城県古河市松並二-18-23,jageocoder
茨城県古河市関戸2014-1,36.192527770996094,139.74530029296875,茨城県古河市関戸2014-1,jageocoder
岐阜県可児市中恵土2371-431,35.43491744995117,137.06478881835938,岐阜県可児市中恵土2371-431,jageocoder
岐阜県各務原市蘇原花園町2-7 イオンタウン各務原内,35.4120979309082,136.84803771972656,岐阜県各務原市蘇原花園町2-7 イオンタウン各務原内,jageocoder
群馬県北群馬郡吉岡町大久保313-7,36.43205642700195,139.02108764648438,群馬県北群馬郡吉岡町大久保313-7,jageocoder
徳島県吉野川市鴨島町上下島108-1,34.07000732421875,134.35174560546875,徳島県吉野川市鴨島町上下島108-1,jageocoder
宮城県名取市杜せきのした3-7-10,38.164207458496094,140.9023895263672,宮城県名取市杜せきのした3-7-10,jageocoder
愛知県名古屋市北区苗田町80-,35.23690414428711,136.91738891601562,愛知県名古屋市北区苗田町80-,jageocoder
愛知県名古屋市天白区原3-906,35.121150970458984,136.99081420898438,愛知県名古屋市天白区原3-906,jageocoder
愛知県名古屋市港区当知2-701-,35.107181549072266,136.85061645507812,愛知県名古屋市港区当知2-701-,jageocoder
愛知県名古屋市緑区細口2-608-,35.086647033691406,136.98838806152344,愛知県名古屋市緑区細口2-608-,jageocoder
愛知県名古屋市港区東茶屋二-412-,35.10548400878906,136.8287811279297,愛知県名古屋市港区東茶屋二-412-,jageocoder
北海道名寄市徳田105-30,44.33608627319336,142.45657348632812,北海道名寄市徳田105-30,jageocoder
沖縄県名護市大南一-13-24,26.594602584838867,127.97869110107422,沖縄県名護市大南一-13-24,jageocoder
京都府向日市鶏冠井町十相1-1,34.94498062133789,135.71145629882812,京都府向日市鶏冠井町十相1-1,jageocoder
千葉県君津市中野4-3-5,35.3309440612793,139.8926239013672,千葉県君津市中野4-3-5,jageocoder
大阪府吹田市青葉丘南4-2,34.80587387084961,135.55445861816406,大阪府吹田市青葉丘南4-2,jageocoder
広島県呉市宮原十三-3-18,34.220577239990234,132.55252075195312,広島県呉市宮原十三-3-18,jageocoder
広島県呉市広古新開8-32-23,34.24264144897461,132.6230926513672,広島県呉市広古新開8-32-23,jageocoder
広島県呉市焼山西3-4-12101,34.293846130371094,132.55250549316406,広島県呉市焼山西3-4-12101,jageocoder
和歌山県岩出市中黒字高圦528-1,34.26905059814453,135.28541564941406,和歌山県岩出市中黒字高圦528-1,jageocoder
和歌山県和歌山市栗栖37-,34.23792266845703,135.22525024414062,和歌山県和歌山市栗栖37-,jageocoder
和歌山県和歌山市梶取162-1,34.25169372558594,135.15611267089844,和歌山県和歌山市梶取162-1,jageocoder
和歌山県橋本市小原田字佃567-1,34.32339096069336,135.60670471191406,和歌山県橋本市小原田字佃567-1,jageocoder
和歌山県和歌山市次郎丸5-9,34.25455856323242,135.15283203125,和歌山県和歌山市次郎丸5-9,jageocoder
大阪府和泉市和気町1-6-19,34.476097106933594,135.42672729492188,大阪府和泉市和気町1-6-19,jageocoder
兵庫県朝来市和田山町法道寺字新中野809-1,35.358489990234375,134.82272338867188,兵庫県朝来市和田山町法道寺字新中野809-1,jageocoder
佐賀県唐津市和多田本村1-40,33.43810272216797,129.9751434326172,佐賀県唐津市和多田本村1-40,jageocoder
愛媛県四国中央市村松町1-13,33.99135208129883,133.56565856933594,愛媛県四国中央市村松町1-13,jageocoder
三重県四日市市三ツ谷町5-24,34.981632232666016,136.6295166015625,三重県四日市市三ツ谷町5-24,jageocoder
三重県四日市市泊小柳町3-35,34.94068145751953,136.6064910888672,三重県四日市市泊小柳町3-35,jageocoder
大阪府四條畷市西中野3-1-18,34.74375915527344,135.6366729736328,大阪府四條畷市西中野3-1-18,jageocoder
東京都国分寺市東恋ケ窪4-22-8,35.71171569824219,139.46859741210938,東京都国分寺市東恋ケ窪4-22-8,jageocoder
兵庫県尼崎市神崎町24-30,34.74308395385742,135.44679260253906,兵庫県尼崎市神崎町24-30,jageocoder
茨城県土浦市小松1-4-27,36.07206344604492,140.2040252685547,茨城県土浦市小松1-4-27,jageocoder
茨城県土浦市中神立町19-1,36.118263244628906,140.2358856201172,茨城県土浦市中神立町19-1,jageocoder
埼玉県坂戸市にっさい花みず木3-20-5,35.969234466552734,139.3699188232422,埼玉県坂戸市にっさい花みず木3-20-5,jageocoder
兵庫県神戸市垂水区小束山本町3-2-2,34.664276123046875,135.0621795654297,兵庫県神戸市垂水区小束山本町3-2-2,jageocoder
福岡県福岡市城南区長尾3-14-8,33.554046630859375,130.38787841796875,福岡県福岡市城南区長尾3-14-8,jageocoder
埼玉県狭山市廣瀬1-31-30,35.85597229003906,139.38653564453125,埼玉県狭山市廣瀬1-31-30,jageocoder
大阪府堺市西区太平寺711-1,34.51267623901367,135.484619140625,大阪府堺市西区太平寺711-1,jageocoder
大阪府堺市中区東山787,34.52079391479492,135.5081329345703,大阪府堺市中区東山787,jageocoder
大阪府堺市堺区海山町3丁154-3,34.59032440185547,135.47325134277344,大阪府堺市堺区海山町3丁154-3,jageocoder
長野県塩尻市広丘吉田1033-1,36.15944290161133,137.9519500732422,長野県塩尻市広丘吉田1033-1,jageocoder
宮城県多賀城市桜木1-7-1,38.28897476196289,141.01113891601562,宮城県多賀城市桜木1-7-1,jageocoder
大分県大分市古国府五-1-26,33.215728759765625,131.6065216064453,大分県大分市古国府五-1-26,jageocoder
大分県大分市竹下一-8-15,33.24189758300781,131.7286376953125,大分県大分市竹下一-8-15,jageocoder
大分県日田市大字十二町35-1,33.320613861083984,130.92630004882812,大分県日田市大字十二町35-1,jageocoder
大分県大分市明野北5-3-1,33.227176666259766,131.65963745117188,大分県大分市明野北5-3-1,jageocoder
神奈川県大和市福田5678-1,35.45421600341797,139.46640014648438,神奈川県大和市福田5678-1,jageocoder
奈良県大和高田市大字神楽27-1,34.52445983886719,135.7384796142578,奈良県大和高田市大字神楽27-1,jageocoder
秋田県大仙市飯田字屋舗通251,39.445438385009766,140.4820556640625,秋田県大仙市飯田字屋舗通251,jageocoder
愛知県海部郡大治町三本木字金久45-,35.168212890625,136.81732177734375,愛知県海部郡大治町三本木字金久45-,jageocoder
滋賀県大津市打出浜14-30 大津テラス3F,35.004417419433594,135.8799591064453,滋賀県大津市打出浜14-30 大津テラス3F,jageocoder
滋賀県大津市大将軍3-303-,34.99151611328125,135.92889404296875,滋賀県大津市大将軍3-303-,jageocoder
福岡県大牟田市船津町407,33.008155822753906,130.43756103515625,福岡県大牟田市船津町407,jageocoder
島根県大田市長久町土江102-2,35.196781158447266,132.47955322265625,島根県大田市長久町土江102-2,jageocoder
福岡県大野城市乙金3-16-8,33.5428466796875,130.49624633789062,福岡県大野城市乙金3-16-8,jageocoder
大阪府大阪市天王寺区筆ヶ崎町2-22,34.6624641418457,135.52755737304688,大阪府大阪市天王寺区筆ヶ崎町2-22,jageocoder
山形県天童市芳賀タウン北三-11-2,38.344139099121094,140.36146545410156,山形県天童市芳賀タウン北三-11-2,jageocoder
福岡県太宰府市大佐野4-20-6,33.50008010864258,130.487548828125,福岡県太宰府市大佐野4-20-6,jageocoder
群馬県太田市小舞木町263-,36.28327941894531,139.38717651367188,群馬県太田市小舞木町263-,jageocoder
鹿児島県奄美市名瀬朝日町11-2,28.395984649658203,129.52635192871094,鹿児島県奄美市名瀬朝日町11-2,jageocoder
奈良県奈良市古市町1322-3,34.66055679321289,135.83238220214844,奈良県奈良市古市町1322-3,jageocoder
奈良県葛城市北花内174,34.483970642089844,135.73291015625,奈良県葛城市北花内174,jageocoder
兵庫県姫路市増位新町2-26,34.856895446777344,134.7083282470703,兵庫県姫路市増位新町2-26,jageocoder
大分県宇佐市大字葛原字東ノ田233-1,33.53462219238281,131.34014892578125,大分県宇佐市大字葛原字東ノ田233-1,jageocoder
熊本県宇土市善道寺町綾織95 宇土シティモ-ル 2階,32.6844367980957,130.66860961914062,熊本県宇土市善道寺町綾織95 宇土シティモ-ル 2階,jageocoder
京都府宇治市大久保町田原67-1,34.87379455566406,135.7643585205078,京都府宇治市大久保町田原67-1,jageocoder
山口県宇部市小松原町2-10-61,33.96482467651367,131.23928833007812,山口県宇部市小松原町2-10-61,jageocoder
山口県宇部市東見初町1-22,33.93583297729492,131.25526428222656,山口県宇部市東見初町1-22,jageocoder
栃木県宇都宮市ゆいの杜6-30-20,36.56822204589844,139.998291015625,栃木県宇都宮市ゆいの杜6-30-20,jageocoder
栃木県宇都宮市岩曽町字沢向1177-41,36.584693908691406,139.90924072265625,栃木県宇都宮市岩曽町字沢向1177-41,jageocoder
栃木県宇都宮市東簗瀬1-25-1,36.54098129272461,139.89859008789062,栃木県宇都宮市東簗瀬1-25-1,jageocoder
大阪府守口市寺方本通三-1-10,34.72483825683594,135.57765197753906,大阪府守口市寺方本通三-1-10,jageocoder
愛知県名古屋市守山区下志段味三-1308- ライフガ-デン志段味西内,35.244651794433594,137.015869140625,愛知県名古屋市守山区下志段味三-1308- ライフガ-デン志段味西内,jageocoder
滋賀県守山市焔魔堂町247-1,35.05119323730469,135.98355102539062,滋賀県守山市焔魔堂町247-1,jageocoder
茨城県守谷市久保ヶ丘2-1-1 守谷テラス内1階,35.967769622802734,139.97476196289062,茨城県守谷市久保ヶ丘2-1-1 守谷テラス内1階,jageocoder
茨城県守谷市中央一-1-,35.95429992675781,139.98765563964844,茨城県守谷市中央一-1-,jageocoder
群馬県安中市岩井2423-1,36.33252716064453,138.926513671875,群馬県安中市岩井2423-1,jageocoder
愛知県安城市城南町1-3-2,34.9534797668457,137.07952880859375,愛知県安城市城南町1-3-2,jageocoder
福岡県宗像市稲元2-4-15,33.808677673339844,130.55123901367188,福岡県宗像市稲元2-4-15,jageocoder
沖縄県宜野湾市宇地泊三-5-23,26.269817352294922,127.73069763183594,沖縄県宜野湾市宇地泊三-5-23,jageocoder
兵庫県宝塚市山本丸橋3-10-1,34.81310272216797,135.39381408691406,兵庫県宝塚市山本丸橋3-10-1,jageocoder
兵庫県宝塚市逆瀬川1-13-1 アピア3 1階,34.79818344116211,135.35153198242188,兵庫県宝塚市逆瀬川1-13-1 アピア3 1階,jageocoder
北海道室蘭市中島本町1-6-2,42.35457992553711,141.0097198486328,北海道室蘭市中島本町1-6-2,jageocoder
宮崎県宮崎市大淀四-7-30 宮交シティ3F,31.895156860351562,131.4188690185547,宮崎県宮崎市大淀四-7-30 宮交シティ3F,jageocoder
岩手県宮古市南町12-20,39.63853073120117,141.9472198486328,岩手県宮古市南町12-20,jageocoder
宮崎県宮崎市まなび野2-35-2,31.85959243774414,131.4190673828125,宮崎県宮崎市まなび野2-35-2,jageocoder
宮崎県宮崎市吉村町長田甲2358,31.912363052368164,131.44680786132812,宮崎県宮崎市吉村町長田甲2358,jageocoder
宮崎県宮崎市浮城町67-1,31.929662704467773,131.43833923339844,宮崎県宮崎市浮城町67-1,jageocoder
宮崎県宮崎市薫る坂1-19-2,31.895429611206055,131.39842224121094,宮崎県宮崎市薫る坂1-19-2,jageocoder
宮崎県児湯郡高鍋町大字北高鍋3241,32.124755859375,131.51988220214844,宮崎県児湯郡高鍋町大字北高鍋3241,jageocoder
静岡県富士市伝法2619-95,35.17573928833008,138.66883850097656,静岡県富士市伝法2619-95,jageocoder
山梨県富士吉田市中曽根4-8-20,35.47896957397461,138.8092498779297,山梨県富士吉田市中曽根4-8-20,jageocoder
静岡県富士宮市若の宮町237-1,35.2314338684082,138.61708068847656,静岡県富士宮市若の宮町237-1,jageocoder
富山県富山市下飯野416-,36.74030303955078,137.2541046142578,富山県富山市下飯野416-,jageocoder
富山県富山市本郷町50--2,36.667877197265625,137.23118591308594,富山県富山市本郷町50--2,jageocoder
群馬県富岡市富岡1649-1,36.26355743408203,138.892333984375,群馬県富岡市富岡1649-1,jageocoder
大阪府富田林市若松町西1-1824-1,34.506370544433594,135.6002960205078,大阪府富田林市若松町西1-1824-1,jageocoder
宮城県富谷市大清水2-13-1,38.36503219604492,140.87840270996094,宮城県富谷市大清水2-13-1,jageocoder
山形県寒河江市大字寒河江内の袋33-,38.375274658203125,140.26084899902344,山形県寒河江市大字寒河江内の袋33-,jageocoder
大阪府寝屋川市大成町13-19,34.75044250488281,135.62435913085938,大阪府寝屋川市大成町13-19,jageocoder
福岡県北九州市小倉南区上曽根新町10-5 アクロスプラザ上曽根内,33.81759262084961,130.94992065429688,福岡県北九州市小倉南区上曽根新町10-5 アクロスプラザ上曽根内,jageocoder
福岡県北九州市小倉南区長尾1-11-30,33.82373809814453,130.8587188720703,福岡県北九州市小倉南区長尾1-11-30,jageocoder
佐賀県小城市小城町畑田2526-1,33.29343032836914,130.1902618408203,佐賀県小城市小城町畑田2526-1,jageocoder
栃木県小山市東城南1-34,36.29471206665039,139.81214904785156,栃木県小山市東城南1-34,jageocoder
東京都小平市鈴木町一-272-,35.724464416503906,139.49998474121094,東京都小平市鈴木町一-272-,jageocoder
石川県小松市今江町4-186-,36.38255310058594,136.4475860595703,石川県小松市今江町4-186-,jageocoder
宮崎県小林市水流迫237-1,31.983057022094727,130.99954223632812,宮崎県小林市水流迫237-1,jageocoder
北海道小樽市有幌町2-9,43.19027328491211,141.00953674316406,北海道小樽市有幌町2-9,jageocoder
愛知県小牧市小牧原新田1425-1,35.30103302001953,136.92491149902344,愛知県小牧市小牧原新田1425-1,jageocoder
兵庫県小野市敷地町1502-11,34.8580207824707,134.9366455078125,兵庫県小野市敷地町1502-11,jageocoder
東京都小金井市緑町2-2-4,35.70507049560547,139.521240234375,東京都小金井市緑町2-2-4,jageocoder
東京都小金井市貫井南町2-2-22,35.693023681640625,139.4978790283203,東京都小金井市貫井南町2-2-22,jageocoder
兵庫県尼崎市西長洲町2-1-36,34.72756576538086,135.4235076904297,兵庫県尼崎市西長洲町2-1-36,jageocoder
広島県尾道市高須町4789-11,34.4313850402832,133.23776245117188,広島県尾道市高須町4789-11,jageocoder
山口県山口市平井44-1,34.161983489990234,131.47137451171875,山口県山口市平井44-1,jageocoder
山形県山形市若宮1-5-1,38.227622985839844,140.3128662109375,山形県山形市若宮1-5-1,jageocoder
山形県山形市桧町3-5-11,38.27605438232422,140.32843017578125,山形県山形市桧町3-5-11,jageocoder
京都府京都市山科区勧修寺東栗栖野町10-,34.97090530395508,135.8084716796875,京都府京都市山科区勧修寺東栗栖野町10-,jageocoder
岐阜県岐阜市又丸30-1,35.4409294128418,136.70391845703125,岐阜県岐阜市又丸30-1,jageocoder
岐阜県岐阜市正木北町4-21,35.45322799682617,136.74888610839844,岐阜県岐阜市正木北町4-21,jageocoder
岐阜県岐阜市茜部辰新1-67-1,35.38102722167969,136.76206970214844,岐阜県岐阜市茜部辰新1-67-1,jageocoder
岐阜県岐阜市茜部大川二-4-1,35.38214874267578,136.7473602294922,岐阜県岐阜市茜部大川二-4-1,jageocoder
岡山県岡山市北区中井町2-5-35-4,34.68351364135742,133.93162536621094,岡山県岡山市北区中井町2-5-35-4,jageocoder
岡山県岡山市中区平井7-18-6,34.6347770690918,133.94993591308594,岡山県岡山市中区平井7-18-6,jageocoder
岡山県岡山市南区泉田376-2 Pモ-ル泉田内,34.625267028808594,133.91041564941406,岡山県岡山市南区泉田376-2 Pモ-ル泉田内,jageocoder
岡山県岡山市南区藤田字錦560-214 P-MALL藤田内,34.58957290649414,133.88619995117188,岡山県岡山市南区藤田字錦560-214 P-MALL藤田内,jageocoder
岡山県岡山市中区高屋336-1,34.67461013793945,133.9680633544922,岡山県岡山市中区高屋336-1,jageocoder
愛知県岡崎市井田西町3-9,34.97633361816406,137.1600341796875,愛知県岡崎市井田西町3-9,jageocoder
和歌山県岩出市中迫106-の1,34.2645378112793,135.3175506591797,和歌山県岩出市中迫106-の1,jageocoder
北海道岩見沢市大和1条8-5- 岩見沢大和タウンプラザ内,43.190093994140625,141.73606872558594,北海道岩見沢市大和1条8-5- 岩見沢大和タウンプラザ内,jageocoder
大阪府岸和田市港緑町3-1 WEST棟2F,34.46748352050781,135.3714599609375,大阪府岸和田市港緑町3-1 WEST棟2F,jageocoder
大阪府岸和田市春木若松町19-20,34.47907257080078,135.3908233642578,大阪府岸和田市春木若松町19-20,jageocoder
東京都東村山市久米川町1-36-1,35.76808547973633,139.48707580566406,東京都東村山市久米川町1-36-1,jageocoder
東京都町田市三輪町281-1,35.578678131103516,139.50021362304688,東京都町田市三輪町281-1,jageocoder
京都府京都市右京区嵯峨新宮町10-1,35.021339416503906,135.68679809570312,京都府京都市右京区嵯峨新宮町10-1,jageocoder
埼玉県川口市江戸1-8-38,35.82258224487305,139.75205993652344,埼玉県川口市江戸1-8-38,jageocoder
神奈川県川崎市川崎区日進町1-11 川崎ルフロン6F,35.5280647277832,139.69509887695312,神奈川県川崎市川崎区日進町1-11 川崎ルフロン6F,jageocoder
神奈川県川崎市川崎区下並木75-,35.52216720581055,139.68878173828125,神奈川県川崎市川崎区下並木75-,jageocoder
神奈川県川崎市中原区中丸子639-1,35.5648078918457,139.67442321777344,神奈川県川崎市中原区中丸子639-1,jageocoder
神奈川県川崎市高津区久末2144-1,35.56838607788086,139.6248321533203,神奈川県川崎市高津区久末2144-1,jageocoder
神奈川県川崎市高津区久地2-5-21,35.61212921142578,139.61216735839844,神奈川県川崎市高津区久地2-5-21,jageocoder
神奈川県川崎市多摩区長沢4-29-1,35.59912109375,139.5338897705078,神奈川県川崎市多摩区長沢4-29-1,jageocoder
神奈川県川崎市宮前区馬絹4-2-5,35.580692291259766,139.5970916748047,神奈川県川崎市宮前区馬絹4-2-5,jageocoder
神奈川県川崎市麻生区黒川字谷769-1,35.619022369384766,139.46841430664062,神奈川県川崎市麻生区黒川字谷769-1,jageocoder
兵庫県川西市矢問3-22-2,34.85800552368164,135.4066619873047,兵庫県川西市矢問3-22-2,jageocoder
埼玉県川越市南大塚3-10-16,35.89081573486328,139.46066284179688,埼玉県川越市南大塚3-10-16,jageocoder
埼玉県川越市小仙波町2-14-1,35.919654846191406,139.49444580078125,埼玉県川越市小仙波町2-14-1,jageocoder
千葉県市原市五所1702-,35.532596588134766,140.1101531982422,千葉県市原市五所1702-,jageocoder
千葉県市原市千種6-8-1,35.49244689941406,140.06150817871094,千葉県市原市千種6-8-1,jageocoder
大阪府東大阪市寿町1-11-2,34.652557373046875,135.56851196289062,大阪府東大阪市寿町1-11-2,jageocoder
北海道帯広市稲田町南8線西10-1 2F,42.89056396484375,143.19876098632812,北海道帯広市稲田町南8線西10-1 2F,jageocoder
北海道帯広市南の森西1-1-2,42.884368896484375,143.17408752441406,北海道帯広市南の森西1-1-2,jageocoder
北海道帯広市西23条南3-54-11,42.91644287109375,143.12936401367188,北海道帯広市西23条南3-54-11,jageocoder
茨城県常陸大宮市中富町979-1,36.54724884033203,140.40786743164062,茨城県常陸大宮市中富町979-1,jageocoder
神奈川県平塚市南原1-24-17,35.33835983276367,139.3234405517578,神奈川県平塚市南原1-24-17,jageocoder
大阪府大阪市平野区加美東4-15-8,34.630157470703125,135.56719970703125,大阪府大阪市平野区加美東4-15-8,jageocoder
大阪府大阪市平野区平野西6-1-9,34.61846923828125,135.5477294921875,大阪府大阪市平野区平野西6-1-9,jageocoder
広島県広島市西区井口明神1-16-1 広島アルパ-ク西棟 4F,34.3724365234375,132.3932342529297,広島県広島市西区井口明神1-16-1 広島アルパ-ク西棟 4F,jageocoder
広島県広島市佐伯区八幡東3-10-1,34.3884162902832,132.36460876464844,広島県広島市佐伯区八幡東3-10-1,jageocoder
広島県広島市安佐北区深川6-3-28,34.480812072753906,132.5336456298828,広島県広島市安佐北区深川6-3-28,jageocoder
広島県広島市安佐南区大町東2-12-16,34.46055603027344,132.4680938720703,広島県広島市安佐南区大町東2-12-16,jageocoder
広島県広島市南区段原南1-3-52 広島段原ショッピングセンタ-4F,34.38589859008789,132.47579956054688,広島県広島市南区段原南1-3-52 広島段原ショッピングセンタ-4F,jageocoder
広島県安芸郡海田町栄町5-8,34.36066818237305,132.53431701660156,広島県安芸郡海田町栄町5-8,jageocoder
広島県広島市安佐南区祇園6-15-6,34.44532775878906,132.4652557373047,広島県広島市安佐南区祇園6-15-6,jageocoder
兵庫県姫路市広畑区夢前町一-2-14,34.79597473144531,134.63856506347656,兵庫県姫路市広畑区夢前町一-2-14,jageocoder
兵庫県姫路市広畑区小松町2-76-,34.801109313964844,134.62318420410156,兵庫県姫路市広畑区小松町2-76-,jageocoder
東京都府中市四谷5-23-12 府中四谷ショッピングセンタ-2階,35.668418884277344,139.43800354003906,東京都府中市四谷5-23-12 府中四谷ショッピングセンタ-2階,jageocoder
宮崎県延岡市愛宕町3-4575-1,32.567169189453125,131.67103576660156,宮崎県延岡市愛宕町3-4575-1,jageocoder
広島県廿日市市宮内4-13-15,34.34991455078125,132.3131103515625,広島県廿日市市宮内4-13-15,jageocoder
青森県弘前市大字早稲田4-3-7,40.60049819946289,140.51393127441406,青森県弘前市大字早稲田4-3-7,jageocoder
青森県弘前市神田4-3-11,40.62582778930664,140.48854064941406,青森県弘前市神田4-3-11,jageocoder
和歌山県御坊市湯川町財部字深州46-4,33.90397644042969,135.15257263183594,和歌山県御坊市湯川町財部字深州46-4,jageocoder
山口県下松市大字末武中字鳥越1145-11,34.028831481933594,131.84417724609375,山口県下松市大字末武中字鳥越1145-11,jageocoder
徳島県徳島市南矢三町1-3-60,34.08585739135742,134.52835083007812,徳島県徳島市南矢三町1-3-60,jageocoder
徳島県徳島市新浜本町三-4-42,34.04384994506836,134.56625366210938,徳島県徳島市新浜本町三-4-42,jageocoder
徳島県徳島市末広1-5-48,34.06245803833008,134.56979370117188,徳島県徳島市末広1-5-48,jageocoder
徳島県板野郡藍住町奥野字東中須64-1,34.11710739135742,134.50279235839844,徳島県板野郡藍住町奥野字東中須64-1,jageocoder
三重県志摩市阿児町鵜方字小向井4939 プラザ21ショッピングセンタ-内,34.32654571533203,136.81307983398438,三重県志摩市阿児町鵜方字小向井4939 プラザ21ショッピングセンタ-内,jageocoder
北海道恵庭市黄金南6-10-5,42.89109420776367,141.59866333007812,北海道恵庭市黄金南6-10-5,jageocoder
千葉県成田市ウイング土屋165,35.79414367675781,140.32321166992188,千葉県成田市ウイング土屋165,jageocoder
大阪府大阪市住吉区我孫子東2-7-10第2グランド-ル住吉,34.59870147705078,135.51254272460938,大阪府大阪市住吉区我孫子東2-7-10第2グランド-ル住吉,jageocoder
神奈川県横浜市戸塚区戸塚町1306-10,35.380001068115234,139.52586364746094,神奈川県横浜市戸塚区戸塚町1306-10,jageocoder
埼玉県戸田市氷川町1-5-14,35.808406829833984,139.6612091064453,埼玉県戸田市氷川町1-5-14,jageocoder
鹿児島県指宿市西方1960-1,31.258554458618164,130.63174438476562,鹿児島県指宿市西方1960-1,jageocoder
大阪府摂津市東正雀19-61,34.78289031982422,135.55479431152344,大阪府摂津市東正雀19-61,jageocoder
福井県敦賀市新松島町13-5,35.64603805541992,136.05459594726562,福井県敦賀市新松島町13-5,jageocoder
兵庫県たつの市龍野町小宅北字前田41-11,34.85530471801758,134.5568084716797,兵庫県たつの市龍野町小宅北字前田41-11,jageocoder
兵庫県姫路市紺屋町57,34.83063888549805,134.69216918945312,兵庫県姫路市紺屋町57,jageocoder
佐賀県武雄市武雄町大字富岡12506-4 アクロスプラザ武雄内,33.1980094909668,130.03314208984375,佐賀県武雄市武雄町大字富岡12506-4 アクロスプラザ武雄内,jageocoder
滋賀県栗東市綣2-3-22,35.0369987487793,135.9810791015625,滋賀県栗東市綣2-3-22,jageocoder
愛知県弥富市五明町蒲原1371-4,35.1146354675293,136.7159423828125,愛知県弥富市五明町蒲原1371-4,jageocoder
埼玉県さいたま市南区別所7-3-1 オリンピック武蔵浦和B1F,35.84736251831055,139.6475067138672,埼玉県さいたま市南区別所7-3-1 オリンピック武蔵浦和B1F,jageocoder
滋賀県守山市今浜町2620-5 ピエリ守山2階,35.12283706665039,135.9456787109375,滋賀県守山市今浜町2620-5 ピエリ守山2階,jageocoder
鹿児島県鹿児島市与次郎1-11-1 ジャングルパ-ク内2階,31.57126235961914,130.5642547607422,鹿児島県鹿児島市与次郎1-11-1 ジャングルパ-ク内2階,jageocoder
山口県下関市伊倉新町1-4-43,34.006473541259766,130.93936157226562,山口県下関市伊倉新町1-4-43,jageocoder
長野県佐久市岩村田1442-1,36.27269744873047,138.46324157714844,長野県佐久市岩村田1442-1,jageocoder
岡山県倉敷市北畝5-19-16,34.54010772705078,133.7535400390625,岡山県倉敷市北畝5-19-16,jageocoder
高知県四万十市具同字八反田3193-1,32.97925567626953,132.91436767578125,高知県四万十市具同字八反田3193-1,jageocoder
埼玉県春日部市粕壁東3-9-11,35.9788703918457,139.76119995117188,埼玉県春日部市粕壁東3-9-11,jageocoder
岐阜県大垣市中野町2-1-7,35.38202667236328,136.60633850097656,岐阜県大垣市中野町2-1-7,jageocoder
京都府宇治市槇島町二十四57-3,34.9121208190918,135.78294372558594,京都府宇治市槇島町二十四57-3,jageocoder
福岡県北九州市小倉北区井堀3-18-12,33.882537841796875,130.8453369140625,福岡県北九州市小倉北区井堀3-18-12,jageocoder
兵庫県宍粟市山崎町鶴木8-2,34.995361328125,134.54074096679688,兵庫県宍粟市山崎町鶴木8-2,jageocoder
埼玉県新座市片山1-20-36,35.770118713378906,139.56387329101562,埼玉県新座市片山1-20-36,jageocoder
宮崎県日南市吾田西4-5-33,31.613197326660156,131.37002563476562,宮崎県日南市吾田西4-5-33,jageocoder
新潟県新潟市江南区早苗2-1-43,37.87126922607422,139.0929718017578,新潟県新潟市江南区早苗2-1-43,jageocoder
新潟県新潟市西区寺尾台3-1-8,37.88196563720703,138.975341796875,新潟県新潟市西区寺尾台3-1-8,jageocoder
新潟県新潟市中央区新和1-2-20,37.90291976928711,139.04246520996094,新潟県新潟市中央区新和1-2-20,jageocoder
新潟県新潟市東区河渡新町2-3-29,37.94725036621094,139.10958862304688,新潟県新潟市東区河渡新町2-3-29,jageocoder
新潟県新潟市南区神屋218-1,37.77298355102539,139.01837158203125,新潟県新潟市南区神屋218-1,jageocoder
新潟県新潟市東区竹尾3-13-6,37.91452407836914,139.09642028808594,新潟県新潟市東区竹尾3-13-6,jageocoder
新潟県新発田市小舟町一-1-32 新発田ミッドタウン小舟SC内,37.963809967041016,139.3274383544922,新潟県新発田市小舟町一-1-32 新発田ミッドタウン小舟SC内,jageocoder
新潟県新発田市舟入町2-4-21,37.956634521484375,139.30850219726562,新潟県新発田市舟入町2-4-21,jageocoder
兵庫県神崎郡福崎町南田原2255-1,34.943668365478516,134.75718688964844,兵庫県神崎郡福崎町南田原2255-1,jageocoder
岩手県花巻市桜台二-9-9,39.39749526977539,141.1024169921875,岩手県花巻市桜台二-9-9,jageocoder
東京都杉並区上荻1-9-1 荻窪タウンセブン2階,35.705223083496094,139.61981201171875,東京都杉並区上荻1-9-1 荻窪タウンセブン2階,jageocoder
奈良県香芝市上中255-1,34.55868911743164,135.6998748779297,奈良県香芝市上中255-1,jageocoder
鹿児島県出水市中央町1544,32.08016586303711,130.34262084960938,鹿児島県出水市中央町1544,jageocoder
宮崎県日向市都町14-10,32.42720031738281,131.62664794921875,宮崎県日向市都町14-10,jageocoder
兵庫県川辺郡猪名川町松尾台1-2-1 日生中央サピエ 2階,34.90674591064453,135.39181518554688,兵庫県川辺郡猪名川町松尾台1-2-1 日生中央サピエ 2階,jageocoder
茨城県日立市金沢町1-12-14,36.54078674316406,140.62319946289062,茨城県日立市金沢町1-12-14,jageocoder
愛知県日進市竹の山三-807-,35.15281677246094,137.03843688964844,愛知県日進市竹の山三-807-,jageocoder
東京都日野市大字上田50-,35.66891860961914,139.4063720703125,東京都日野市大字上田50-,jageocoder
北海道旭川市旭神2条2-5-21,43.73859786987305,142.38360595703125,北海道旭川市旭神2条2-5-21,jageocoder
北海道旭川市東光8条1-3-4,43.74867630004883,142.38853454589844,北海道旭川市東光8条1-3-4,jageocoder
北海道旭川市永山二条4-1-20,43.79022979736328,142.4012451171875,北海道旭川市永山二条4-1-20,jageocoder
北海道旭川市緑町12-1125-92,43.783912658691406,142.33786010742188,北海道旭川市緑町12-1125-92,jageocoder
千葉県旭市ニ6011-1,35.72360610961914,140.619873046875,千葉県旭市ニ6011-1,jageocoder
兵庫県明石市魚住町中尾508-,34.6905403137207,134.90806579589844,兵庫県明石市魚住町中尾508-,jageocoder
三重県桑名市星川785- 星川サンシティ2F,35.067962646484375,136.62684631347656,三重県桑名市星川785- 星川サンシティ2F,jageocoder
福岡県春日市星見ヶ丘5-250-1,33.50620651245117,130.45083618164062,福岡県春日市星見ヶ丘5-250-1,jageocoder
愛知県春日井市八田町八-1-7,35.25169372558594,136.9718780517578,愛知県春日井市八田町八-1-7,jageocoder
福岡県春日市惣利1-25-,33.514434814453125,130.4694061279297,福岡県春日市惣利1-25-,jageocoder
兵庫県神戸市中央区北本町通1-1-29,34.6990966796875,135.2086181640625,兵庫県神戸市中央区北本町通1-1-29,jageocoder
東京都昭島市緑町4-3-25,35.71519470214844,139.34619140625,東京都昭島市緑町4-3-25,jageocoder
東京都江東区有明2-1-8,35.637699127197266,139.7904510498047,東京都江東区有明2-1-8,jageocoder
愛知県名古屋市緑区南陵601,35.0451545715332,136.96580505371094,愛知県名古屋市緑区南陵601,jageocoder
埼玉県朝霞市幸町2-4-12,35.790321350097656,139.58799743652344,埼玉県朝霞市幸町2-4-12,jageocoder
千葉県木更津市ほたる野2-22-4,35.38092041015625,139.9654541015625,千葉県木更津市ほたる野2-22-4,jageocoder
千葉県木更津市請西1-10-30,35.37595748901367,139.9350128173828,千葉県木更津市請西1-10-30,jageocoder
千葉県木更津市金田東6-3-8,35.43406295776367,139.93209838867188,千葉県木更津市金田東6-3-8,jageocoder
埼玉県本庄市早稲田の杜4-1-3,36.22185134887695,139.1842803955078,埼玉県本庄市早稲田の杜4-1-3,jageocoder
熊本県天草市丸尾町15-27,32.46989822387695,130.1857147216797,熊本県天草市丸尾町15-27,jageocoder
北海道札幌市中央区北十条西23-2-1,43.06847381591797,141.31942749023438,北海道札幌市中央区北十条西23-2-1,jageocoder
北海道札幌市北区屯田8条7-10-27,43.14154052734375,141.33169555664062,北海道札幌市北区屯田8条7-10-27,jageocoder
北海道札幌市清田区北野3条1-12-15,43.01423263549805,141.42886352539062,北海道札幌市清田区北野3条1-12-15,jageocoder
北海道札幌市北区新琴似1条13-16-25,43.11410140991211,141.3059539794922,北海道札幌市北区新琴似1条13-16-25,jageocoder
北海道札幌市東区北三十条東十九-2-15,43.101951599121094,141.3775177001953,北海道札幌市東区北三十条東十九-2-15,jageocoder
北海道札幌市東区東雁来9条4-7-14,43.09430694580078,141.4305419921875,北海道札幌市東区東雁来9条4-7-14,jageocoder
北海道札幌市西区発寒九条十四-516-411,43.1016960144043,141.27206420898438,北海道札幌市西区発寒九条十四-516-411,jageocoder
北海道札幌市白石区菊水8条4-2-15,43.05756759643555,141.3855743408203,北海道札幌市白石区菊水8条4-2-15,jageocoder
北海道札幌市豊平区西岡四条12-1-1,42.99784469604492,141.38026428222656,北海道札幌市豊平区西岡四条12-1-1,jageocoder
東京都杉並区今川1-19-15,35.71907043457031,139.6137237548828,東京都杉並区今川1-19-15,jageocoder
新潟県村上市上助渕1010-,38.20753479003906,139.48095703125,新潟県村上市上助渕1010-,jageocoder
山形県東根市温泉町三-14-6,38.467559814453125,140.38771057128906,山形県東根市温泉町三-14-6,jageocoder
大阪府大阪市東住吉区杭全2-12-10,34.636444091796875,135.53700256347656,大阪府大阪市東住吉区杭全2-12-10,jageocoder
東京都東久留米市南町3-7-3,35.74228286743164,139.5232391357422,東京都東久留米市南町3-7-3,jageocoder
東京都東大和市仲原1-8-3,35.74296188354492,139.44342041015625,東京都東大和市仲原1-8-3,jageocoder
大阪府東大阪市吉田本町二-2-25,34.6730842590332,135.6251220703125,大阪府東大阪市吉田本町二-2-25,jageocoder
広島県東広島市西条中央5-10-26,34.41162872314453,132.741943359375,広島県東広島市西条中央5-10-26,jageocoder
神奈川県横浜市戸塚区川上町87-8 東戸塚西口プラザ 2F,35.431644439697266,139.5543670654297,神奈川県横浜市戸塚区川上町87-8 東戸塚西口プラザ 2F,jageocoder
埼玉県所沢市東所沢和田3-5-7,35.79788589477539,139.51092529296875,埼玉県所沢市東所沢和田3-5-7,jageocoder
埼玉県東松山市あずま町二-8-2,36.004947662353516,139.4083251953125,埼玉県東松山市あずま町二-8-2,jageocoder
東京都板橋区前野町6-3-1,35.76371383666992,139.68495178222656,東京都板橋区前野町6-3-1,jageocoder
埼玉県さいたま市緑区大間木2-1-9,35.876670837402344,139.69415283203125,埼玉県さいたま市緑区大間木2-1-9,jageocoder
奈良県生駒市東菜畑1-291,34.68635177612305,135.71359252929688,奈良県生駒市東菜畑1-291,jageocoder
愛知県愛知郡東郷町大字春木字白土1-2200,35.10903549194336,137.02183532714844,愛知県愛知郡東郷町大字春木字白土1-2200,jageocoder
千葉県東金市田間三-39-1,35.56949234008789,140.37498474121094,千葉県東金市田間三-39-1,jageocoder
大阪府松原市東新町5-11-27,34.57487487792969,135.5426483154297,大阪府松原市東新町5-11-27,jageocoder
愛媛県松山市東垣生町160-1 3/12(木)をもちまして閉店致しました。 永らくのご愛顧、誠にありがとうございました。 -,33.812862396240234,132.71690368652344,愛媛県松山市東垣生町160-1 3/12(木)をもちまして閉店致しました。 永らくのご愛顧、誠にありがとうございました。 -,jageocoder
愛媛県松山市東石井6-2-6,33.80936050415039,132.77798461914062,愛媛県松山市東石井6-2-6,jageocoder
愛媛県松山市東垣生町964-1,33.81662368774414,132.71055603027344,愛媛県松山市東垣生町964-1,jageocoder
愛媛県松山市鷹子町495-1,33.81258773803711,132.81570434570312,愛媛県松山市鷹子町495-1,jageocoder
千葉県松戸市古ヶ崎二-3083-,35.798431396484375,139.89683532714844,千葉県松戸市古ヶ崎二-3083-,jageocoder
千葉県松戸市大橋393-1,35.76588439941406,139.9107208251953,千葉県松戸市大橋393-1,jageocoder
千葉県松戸市常盤平1-3-1,35.80295944213867,139.9461212158203,千葉県松戸市常盤平1-3-1,jageocoder
長野県松本市筑摩3-1-20,36.22185516357422,137.98046875,長野県松本市筑摩3-1-20,jageocoder
島根県松江市春日町字中代186-1,35.486541748046875,133.04595947265625,島根県松江市春日町字中代186-1,jageocoder
島根県松江市東津田町1132-1,35.45822525024414,133.08380126953125,島根県松江市東津田町1132-1,jageocoder
三重県松阪市塚本町15-,34.59354019165039,136.52127075195312,三重県松阪市塚本町15-,jageocoder
三重県松阪市大黒田町717,34.56251525878906,136.5283660888672,三重県松阪市大黒田町717,jageocoder
東京都板橋区四葉2-6--3,35.77996826171875,139.65151977539062,東京都板橋区四葉2-6--3,jageocoder
大阪府枚方市伊加賀南町2-50,34.80916213989258,135.638916015625,大阪府枚方市伊加賀南町2-50,jageocoder
大阪府枚方市茄子作5-988-,34.77909851074219,135.66424560546875,大阪府枚方市茄子作5-988-,jageocoder
大阪府枚方市長尾元町5-10-15,34.82373809814453,135.7103729248047,大阪府枚方市長尾元町5-10-15,jageocoder
大阪府枚方市高野道1-23-10(ス-パ-万代横),34.84565734863281,135.69993591308594,大阪府枚方市高野道1-23-10(ス-パ-万代横),jageocoder
新潟県柏崎市東柳田30-,37.37886047363281,138.58108520507812,新潟県柏崎市東柳田30-,jageocoder
栃木県栃木市箱森町11-3,36.38578796386719,139.71768188476562,栃木県栃木市箱森町11-3,jageocoder
宮城県栗原市築館宮野中央一-4-5,38.746337890625,141.0159149169922,宮城県栗原市築館宮野中央一-4-5,jageocoder
群馬県桐生市相生町5-字北縁480-1,36.41512680053711,139.28726196289062,群馬県桐生市相生町5-字北縁480-1,jageocoder
奈良県桜井市大字大福1174-,34.521629333496094,135.82168579101562,奈良県桜井市大字大福1174-,jageocoder
神奈川県横浜市港南区日野中央3-19-12,35.377891540527344,139.58868408203125,神奈川県横浜市港南区日野中央3-19-12,jageocoder
神奈川県横浜市港南区日野六-11-1,35.393310546875,139.57635498046875,神奈川県横浜市港南区日野六-11-1,jageocoder
神奈川県横浜市緑区長津田みなみ台5-11-4,35.523258209228516,139.49874877929688,神奈川県横浜市緑区長津田みなみ台5-11-4,jageocoder
神奈川県横須賀市佐原三-21-1,35.23333740234375,139.678466796875,神奈川県横須賀市佐原三-21-1,jageocoder
奈良県橿原市木原町字奈良地238-1,34.517486572265625,135.80169677734375,奈良県橿原市木原町字奈良地238-1,jageocoder
大阪府大阪市此花区高見1-5 高見プラザ2階,34.69235610961914,135.458984375,大阪府大阪市此花区高見1-5 高見プラザ2階,jageocoder
福井県越前市日野美2-18-1,35.89942932128906,136.154052734375,福井県越前市日野美2-18-1,jageocoder
栃木県さくら市卯の里1-12-7,36.68418884277344,139.9580535888672,栃木県さくら市卯の里1-12-7,jageocoder
宮城県気仙沼市田中前1-6-3,38.89225769042969,141.56341552734375,宮城県気仙沼市田中前1-6-3,jageocoder
茨城県水戸市けやき台2-1-,36.33523178100586,140.48764038085938,茨城県水戸市けやき台2-1-,jageocoder
茨城県水戸市内原1-188,36.37405014038086,140.35528564453125,茨城県水戸市内原1-188,jageocoder
茨城県水戸市河和田2-1777-3,36.37675476074219,140.40725708007812,茨城県水戸市河和田2-1777-3,jageocoder
富山県氷見市柳田1945,36.8341178894043,136.99313354492188,富山県氷見市柳田1945,jageocoder
愛知県江南市赤童子町栄56-,35.32978439331055,136.8633270263672,愛知県江南市赤童子町栄56-,jageocoder
東京都江戸川区宇喜田町180-2,35.673431396484375,139.8614959716797,東京都江戸川区宇喜田町180-2,jageocoder
東京都江戸川区本一色1-28-3,35.71504592895508,139.869384765625,東京都江戸川区本一色1-28-3,jageocoder
東京都江戸川区鹿骨1-53-8,35.70890808105469,139.88980102539062,東京都江戸川区鹿骨1-53-8,jageocoder
沖縄県沖縄市美原3-18-15,26.34726905822754,127.81746673583984,沖縄県沖縄市美原3-18-15,jageocoder
静岡県沼津市北高島町8-6 フェスタノジマ内1階,35.111289978027344,138.85848999023438,静岡県沼津市北高島町8-6 フェスタノジマ内1階,jageocoder
群馬県沼田市上原町字白清水1605-6,36.64800262451172,139.06324768066406,群馬県沼田市上原町字白清水1605-6,jageocoder
大阪府泉佐野市日根野4619-1,34.39896774291992,135.32594299316406,大阪府泉佐野市日根野4619-1,jageocoder
大阪府泉大津市池浦町1-7-19,34.49814987182617,135.412353515625,大阪府泉大津市池浦町1-7-19,jageocoder
岡山県津山市志戸部684-1,35.076717376708984,134.01828002929688,岡山県津山市志戸部684-1,jageocoder
千葉県船橋市前原西2-19-1 津田沼ビ-ト5階,35.692283630371094,140.0220489501953,千葉県船橋市前原西2-19-1 津田沼ビ-ト5階,jageocoder
三重県津市藤方589-1,34.68346405029297,136.5149688720703,三重県津市藤方589-1,jageocoder
千葉県流山市野々下5-1065-1,35.861572265625,139.94540405273438,千葉県流山市野々下5-1065-1,jageocoder
東京都台東区浅草1-26-5,35.7126579284668,139.7932586669922,東京都台東区浅草1-26-5,jageocoder
静岡県浜松市中央区上島4-29-8,34.74418640136719,137.7464141845703,静岡県浜松市中央区上島4-29-8,jageocoder
静岡県浜松市中央区半田山3-31-23,34.77385330200195,137.74302673339844,静岡県浜松市中央区半田山3-31-23,jageocoder
静岡県浜松市中央区原島町497-1,34.7292366027832,137.7685089111328,静岡県浜松市中央区原島町497-1,jageocoder
静岡県浜松市中央区参野町58,34.69102096557617,137.75711059570312,静岡県浜松市中央区参野町58,jageocoder
静岡県浜松市中央区富塚町233-2,34.720054626464844,137.70591735839844,静岡県浜松市中央区富塚町233-2,jageocoder
静岡県浜松市中央区雄踏一-11-14,34.69544219970703,137.64633178710938,静岡県浜松市中央区雄踏一-11-14,jageocoder
静岡県浜松市中央区高丘東2-13-8,34.757083892822266,137.71084594726562,静岡県浜松市中央区高丘東2-13-8,jageocoder
埼玉県さいたま市浦和区東高砂町11-1 浦和パルコ3F,35.857906341552734,139.65863037109375,埼玉県さいたま市浦和区東高砂町11-1 浦和パルコ3F,jageocoder
埼玉県さいたま市岩槻区美園東一-5-12,35.8977165222168,139.7346649169922,埼玉県さいたま市岩槻区美園東一-5-12,jageocoder
和歌山県海南市重根74-1,34.155574798583984,135.2397003173828,和歌山県海南市重根74-1,jageocoder
大阪府大阪市淀川区新高二-2-8,34.729068756103516,135.47650146484375,大阪府大阪市淀川区新高二-2-8,jageocoder
埼玉県深谷市上野台3305-1,36.18635177612305,139.27133178710938,埼玉県深谷市上野台3305-1,jageocoder
静岡県静岡市清水区北脇258-1,35.01884460449219,138.4649200439453,静岡県静岡市清水区北脇258-1,jageocoder
群馬県渋川市行幸田91-1,36.480587005615234,139.00228881835938,群馬県渋川市行幸田91-1,jageocoder
静岡県湖西市鷲津3319(西遠皮膚科横),34.70982360839844,137.54025268554688,静岡県湖西市鷲津3319(西遠皮膚科横),jageocoder
神奈川県藤沢市遠藤字滝ノ沢698-10 湘南とうきゅうSC内2F,35.37135696411133,139.44212341308594,神奈川県藤沢市遠藤字滝ノ沢698-10 湘南とうきゅうSC内2F,jageocoder
北海道滝川市東町1-43-5,43.55412673950195,141.9253387451172,北海道滝川市東町1-43-5,jageocoder
岡山県瀬戸内市邑久町豊安18-1,34.663726806640625,134.09075927734375,岡山県瀬戸内市邑久町豊安18-1,jageocoder
愛知県瀬戸市小坂町235-,35.2023811340332,137.05154418945312,愛知県瀬戸市小坂町235-,jageocoder
静岡県焼津市小川字中川原道下3128-1,34.85051727294922,138.31842041015625,静岡県焼津市小川字中川原道下3128-1,jageocoder
熊本県合志市大字幾久富1909-1600,32.86566925048828,130.7713165283203,熊本県合志市大字幾久富1909-1600,jageocoder
熊本県菊池郡大津町室269-1,32.87529373168945,130.86793518066406,熊本県菊池郡大津町室269-1,jageocoder
熊本県熊本市南区野田2-29-23,32.73148727416992,130.6834716796875,熊本県熊本市南区野田2-29-23,jageocoder
熊本県宇城市松橋町きらら1-5-1,32.64577865600586,130.67843627929688,熊本県宇城市松橋町きらら1-5-1,jageocoder
熊本県熊本市北区武蔵ケ丘3-1-3,32.852508544921875,130.7665252685547,熊本県熊本市北区武蔵ケ丘3-1-3,jageocoder
熊本県熊本市南区江越1-17-7,32.77510452270508,130.70083618164062,熊本県熊本市南区江越1-17-7,jageocoder
熊本県熊本市北区高平3-36-22,32.84003448486328,130.71815490722656,熊本県熊本市北区高平3-36-22,jageocoder
熊本県熊本市東区花立4-3-5,32.78435134887695,130.77447509765625,熊本県熊本市東区花立4-3-5,jageocoder
熊本県熊本市東区長嶺南2-5-5,32.81093978881836,130.7686767578125,熊本県熊本市東区長嶺南2-5-5,jageocoder
埼玉県熊谷市円光2-1-12,36.15826416015625,139.38462829589844,埼玉県熊谷市円光2-1-12,jageocoder
新潟県燕市杣木2658-1,37.67180252075195,138.9099578857422,新潟県燕市杣木2658-1,jageocoder
茨城県牛久市上柏田3-67-1,35.989723205566406,140.1569061279297,茨城県牛久市上柏田3-67-1,jageocoder
千葉県印西市牧の原1-3-1 牧の原モア内,35.80453872680664,140.1664276123047,千葉県印西市牧の原1-3-1 牧の原モア内,jageocoder
静岡県牧之原市細江2153-1,34.75782775878906,138.24436950683594,静岡県牧之原市細江2153-1,jageocoder
熊本県玉名市岱明町庄山812,32.93582534790039,130.51824951171875,熊本県玉名市岱明町庄山812,jageocoder
岡山県玉野市宇野1-38-1 玉野メルカ2F,34.49262237548828,133.94517517089844,岡山県玉野市宇野1-38-1 玉野メルカ2F,jageocoder
岐阜県瑞浪市薬師町4-22-,35.363399505615234,137.2283935546875,岐阜県瑞浪市薬師町4-22-,jageocoder
大阪府東大阪市新町1-1,34.67076873779297,135.64041137695312,大阪府東大阪市新町1-1,jageocoder
福岡県朝倉市甘木一丁田324,33.41807174682617,130.66378784179688,福岡県朝倉市甘木一丁田324,jageocoder
愛知県あま市甚目寺五位田128,35.19685363769531,136.82472229003906,愛知県あま市甚目寺五位田128,jageocoder
奈良県生駒郡平群町大字下垣内78-1,34.62881851196289,135.7056121826172,奈良県生駒郡平群町大字下垣内78-1,jageocoder
福岡県田川市大字糒47-1,33.65668487548828,130.81480407714844,福岡県田川市大字糒47-1,jageocoder
大分県由布市挾間町大字北方46-3,33.20492935180664,131.52088928222656,大分県由布市挾間町大字北方46-3,jageocoder
山梨県甲州市塩山下塩後842-,35.69576644897461,138.71820068359375,山梨県甲州市塩山下塩後842-,jageocoder
山梨県甲府市中小河原一-12-26,35.634300231933594,138.56813049316406,山梨県甲府市中小河原一-12-26,jageocoder
山梨県中巨摩郡昭和町河西1074-4,35.61460876464844,138.51959228515625,山梨県中巨摩郡昭和町河西1074-4,jageocoder
山梨県甲斐市龍地3653-1,35.68291091918945,138.50619506835938,山梨県甲斐市龍地3653-1,jageocoder
東京都町田市小山ヶ丘5-1-1,35.60270690917969,139.3654022216797,東京都町田市小山ヶ丘5-1-1,jageocoder
宮城県登米市迫町佐沼字江合一-4-2,38.68556594848633,141.18682861328125,宮城県登米市迫町佐沼字江合一-4-2,jageocoder
福島県西白河郡西郷村字裏山南15,37.1253662109375,140.18272399902344,福島県西白河郡西郷村字裏山南15,jageocoder
島根県益田市中吉田町1084-5,34.6884651184082,131.84140014648438,島根県益田市中吉田町1084-5,jageocoder
岩手県盛岡市厨川3-13-30,39.74778366088867,141.13063049316406,岩手県盛岡市厨川3-13-30,jageocoder
岩手県盛岡市向中野2-5-8,39.68330764770508,141.14315795898438,岩手県盛岡市向中野2-5-8,jageocoder
岩手県盛岡市大館町19-18,39.71607971191406,141.1106719970703,岩手県盛岡市大館町19-18,jageocoder
神奈川県相模原市緑区向原一-16-27,35.59065246582031,139.3038787841797,神奈川県相模原市緑区向原一-16-27,jageocoder
神奈川県相模原市中央区東淵野辺4-23-15,35.55787658691406,139.41175842285156,神奈川県相模原市中央区東淵野辺4-23-15,jageocoder
神奈川県相模原市南区相武台三-26-35,35.504661560058594,139.4091339111328,神奈川県相模原市南区相武台三-26-35,jageocoder
神奈川県相模原市中央区相模原2-14-1,35.577842712402344,139.36793518066406,神奈川県相模原市中央区相模原2-14-1,jageocoder
栃木県真岡市大谷台町3-5,36.4376106262207,139.99594116210938,栃木県真岡市大谷台町3-5,jageocoder
栃木県矢板市中2013-4,36.80534362792969,139.94139099121094,栃木県矢板市中2013-4,jageocoder
沖縄県石垣市字真栄里549-1,24.33804702758789,124.17938232421875,沖縄県石垣市字真栄里549-1,jageocoder
宮城県石巻市大街道北1-5-25,38.430110931396484,141.28587341308594,宮城県石巻市大街道北1-5-25,jageocoder
富山県砺波市中神4-98,36.639610290527344,136.94496154785156,富山県砺波市中神4-98,jageocoder
愛知県碧南市音羽町4-73,34.87074661254883,136.98448181152344,愛知県碧南市音羽町4-73,jageocoder
静岡県磐田市鳥之瀬83,34.71293258666992,137.86404418945312,静岡県磐田市鳥之瀬83,jageocoder
兵庫県神戸市中央区東川崎町1-3-3 ハ-バ-ランドセンタ-ビル1階,34.676631927490234,135.1796875,兵庫県神戸市中央区東川崎町1-3-3 ハ-バ-ランドセンタ-ビル1階,jageocoder
兵庫県神戸市北区有野中町4-2-11,34.83372116088867,135.228515625,兵庫県神戸市北区有野中町4-2-11,jageocoder
福井県福井市大町1-505,36.03644561767578,136.2198944091797,福井県福井市大町1-505,jageocoder
福井県福井市若杉3-1709-,36.053096771240234,136.18853759765625,福井県福井市若杉3-1709-,jageocoder
福井県福井市高木中央2-3119,36.09263610839844,136.23544311523438,福井県福井市高木中央2-3119,jageocoder
広島県福山市新市町戸手582-1,34.54929733276367,133.28668212890625,広島県福山市新市町戸手582-1,jageocoder
広島県福山市箕島町5816-110,34.45393753051758,133.3909912109375,広島県福山市箕島町5816-110,jageocoder
広島県福山市南蔵王町1-7-7,34.502628326416016,133.39004516601562,広島県福山市南蔵王町1-7-7,jageocoder
福岡県福岡市西区北原2-7-35,33.58109664916992,130.2526092529297,福岡県福岡市西区北原2-7-35,jageocoder
福岡県福岡市東区土井1-8-28,33.63500213623047,130.46275329589844,福岡県福岡市東区土井1-8-28,jageocoder
福岡県福岡市西区姪浜駅南2-24-3,33.57819747924805,130.32705688476562,福岡県福岡市西区姪浜駅南2-24-3,jageocoder
福岡県糟屋郡宇美町光正寺1-8-30,33.57586669921875,130.49859619140625,福岡県糟屋郡宇美町光正寺1-8-30,jageocoder
福岡県糟屋郡新宮町三代西2-4-6,33.6983757019043,130.4514617919922,福岡県糟屋郡新宮町三代西2-4-6,jageocoder
福岡県福岡市早良区重留1-1-11,33.535404205322266,130.34263610839844,福岡県福岡市早良区重留1-1-11,jageocoder
福岡県福岡市中央区警固3-6-1,33.577606201171875,130.3896484375,福岡県福岡市中央区警固3-6-1,jageocoder
福岡県糟屋郡志免町別府三-5-1,33.60441207885742,130.45655822753906,福岡県糟屋郡志免町別府三-5-1,jageocoder
福岡県行橋市行事6-5-35,33.733787536621094,130.96878051757812,福岡県行橋市行事6-5-35,jageocoder
福岡県福岡市南区野多目1-12-43,33.54212951660156,130.42381286621094,福岡県福岡市南区野多目1-12-43,jageocoder
福島県福島市南矢野目谷地70-2,37.7883186340332,140.4534149169922,福島県福島市南矢野目谷地70-2,jageocoder
福島県福島市吉倉字前田46-1,37.745601654052734,140.44525146484375,福島県福島市吉倉字前田46-1,jageocoder
福島県福島市松山町78-4,37.77521514892578,140.48509216308594,福島県福島市松山町78-4,jageocoder
福岡県福津市日蒔野六-23-10,33.7533073425293,130.4908905029297,福岡県福津市日蒔野六-23-10,jageocoder
京都府福知山市末広町2-1-,35.29761505126953,135.11636352539062,京都府福知山市末広町2-1-,jageocoder
秋田県秋田市八橋本町3-21-34,39.727073669433594,140.09909057617188,秋田県秋田市八橋本町3-21-34,jageocoder
秋田県秋田市外旭川字大谷地29-1,39.75492477416992,140.09527587890625,秋田県秋田市外旭川字大谷地29-1,jageocoder
埼玉県秩父市下影森809-1,35.98073959350586,139.0748748779297,埼玉県秩父市下影森809-1,jageocoder
千葉県千葉市稲毛区園生町154-1,35.647186279296875,140.1012420654297,千葉県千葉市稲毛区園生町154-1,jageocoder
千葉県千葉市稲毛区小深町132-1,35.65837860107422,140.15008544921875,千葉県千葉市稲毛区小深町132-1,jageocoder
長野県安曇野市穂高2535-1,36.336753845214844,137.88954162597656,長野県安曇野市穂高2535-1,jageocoder
東京都立川市柏町2-34-1,35.72160720825195,139.4121551513672,東京都立川市柏町2-34-1,jageocoder
兵庫県尼崎市稲葉元町1-1-15,34.73799133300781,135.38897705078125,兵庫県尼崎市稲葉元町1-1-15,jageocoder
山梨県笛吹市石和町広瀬1195-59,35.64458465576172,138.61972045898438,山梨県笛吹市石和町広瀬1195-59,jageocoder
茨城県筑西市布川1317-1,36.29125213623047,139.91876220703125,茨城県筑西市布川1317-1,jageocoder
鳥取県米子市上福原3-2-15,35.44623947143555,133.35104370117188,鳥取県米子市上福原3-2-15,jageocoder
鳥取県米子市夜見町2937-3,35.46904754638672,133.30633544921875,鳥取県米子市夜見町2937-3,jageocoder
山形県米沢市金池5-13-8,37.92475509643555,140.1184844970703,山形県米沢市金池5-13-8,jageocoder
沖縄県糸満市西崎町四-22-3,26.142742156982422,127.6607894897461,沖縄県糸満市西崎町四-22-3,jageocoder
新潟県糸魚川市南押上三-1-25,37.04604721069336,137.87945556640625,新潟県糸魚川市南押上三-1-25,jageocoder
兵庫県姫路市網干区和久字下丁田12-1,34.80889129638672,134.58592224121094,兵庫県姫路市網干区和久字下丁田12-1,jageocoder
北海道網走市駒場北五-83-12 駒場ショッピングタウンアルサキット内,44.00153350830078,144.28427124023438,北海道網走市駒場北五-83-12 駒場ショッピングタウンアルサキット内,jageocoder
岡山県総社市中央5-4-108,34.668766021728516,133.75201416015625,岡山県総社市中央5-4-108,jageocoder
大阪府大阪市東成区東今里2-6-28,34.679039001464844,135.54928588867188,大阪府大阪市東成区東今里2-6-28,jageocoder
東京都練馬区中村1-15-37,35.73181915283203,139.64743041992188,東京都練馬区中村1-15-37,jageocoder
東京都練馬区高松4-21-5,35.75100326538086,139.6259307861328,東京都練馬区高松4-21-5,jageocoder
大阪府堺市美原区黒山44-,34.5421028137207,135.56202697753906,大阪府堺市美原区黒山44-,jageocoder
岐阜県美濃加茂市山手町2-41 3/8(日)をもちまして閉店致しました。 永らくのご愛顧、誠にありがとうございました。 -,35.45254898071289,137.01422119140625,岐阜県美濃加茂市山手町2-41 3/8(日)をもちまして閉店致しました。 永らくのご愛顧、誠にありがとうございました。 -,jageocoder
群馬県館林市北成島町2573-1,36.254310607910156,139.51979064941406,群馬県館林市北成島町2573-1,jageocoder
岐阜県羽島市竹鼻町飯柄22-1,35.32072067260742,136.7156982421875,岐阜県羽島市竹鼻町飯柄22-1,jageocoder
大阪府羽曳野市野466-1,34.559810638427734,135.57431030273438,大阪府羽曳野市野466-1,jageocoder
埼玉県羽生市大字下岩瀬490-2,36.16069412231445,139.53028869628906,埼玉県羽生市大字下岩瀬490-2,jageocoder
秋田県能代市長崎41-1,40.1866340637207,140.0235137939453,秋田県能代市長崎41-1,jageocoder
栃木県下野市烏ヶ森1-1-1,36.38526916503906,139.8544158935547,栃木県下野市烏ヶ森1-1-1,jageocoder
千葉県船橋市金杉8-7-22,35.7330207824707,140.01429748535156,千葉県船橋市金杉8-7-22,jageocoder
北海道苫小牧市住吉町2-7-1,42.65119934082031,141.60623168945312,北海道苫小牧市住吉町2-7-1,jageocoder
北海道苫小牧市弥生町1-9-6,42.62795639038086,141.58258056640625,北海道苫小牧市弥生町1-9-6,jageocoder
北海道苫小牧市北栄町1-23-16,42.67626190185547,141.68972778320312,北海道苫小牧市北栄町1-23-16,jageocoder
千葉県茂原市高師1037-1,35.43339538574219,140.29298400878906,千葉県茂原市高師1037-1,jageocoder
長野県茅野市宮川1131-2,35.99546813964844,138.13438415527344,長野県茅野市宮川1131-2,jageocoder
大阪府茨木市平田2-18-5,34.80565643310547,135.5890655517578,大阪府茨木市平田2-18-5,jageocoder
埼玉県草加市新栄3-2-1,35.8604736328125,139.76853942871094,埼玉県草加市新栄3-2-1,jageocoder
滋賀県草津市草津町1952-1,35.018028259277344,135.9475860595703,滋賀県草津市草津町1952-1,jageocoder
静岡県菊川市半済1078-1,34.75434494018555,138.08880615234375,静岡県菊川市半済1078-1,jageocoder
熊本県菊池市大琳寺字堀ノ内138-1,32.97293472290039,130.80474853515625,熊本県菊池市大琳寺字堀ノ内138-1,jageocoder
京都府京都市右京区西院月双町15-,34.999385833740234,135.72048950195312,京都府京都市右京区西院月双町15-,jageocoder
東京都葛飾区東堀切3-5-6,35.75605392456055,139.8351593017578,東京都葛飾区東堀切3-5-6,jageocoder
東京都葛飾区東水元4-2-1,35.78704833984375,139.86497497558594,東京都葛飾区東水元4-2-1,jageocoder
東京都葛飾区柴又2-14-21,35.75977325439453,139.86756896972656,東京都葛飾区柴又2-14-21,jageocoder
埼玉県蓮田市椿山2-11-9,35.99589920043945,139.65432739257812,埼玉県蓮田市椿山2-11-9,jageocoder
茨城県ひたちなか市新光町30-4,36.40717315673828,140.58421325683594,茨城県ひたちなか市新光町30-4,jageocoder
鹿児島県薩摩川内市国分寺町6965-1,31.82724380493164,130.30311584472656,鹿児島県薩摩川内市国分寺町6965-1,jageocoder
鹿児島県薩摩川内市平佐町1653-4,31.810001373291016,130.32643127441406,鹿児島県薩摩川内市平佐町1653-4,jageocoder
群馬県藤岡市藤岡822-3,36.25371170043945,139.08334350585938,群馬県藤岡市藤岡822-3,jageocoder
神奈川県藤沢市葛原2248,35.406368255615234,139.44015502929688,神奈川県藤沢市葛原2248,jageocoder
埼玉県行田市佐間1-23-14,36.13291549682617,139.45790100097656,埼玉県行田市佐間1-23-14,jageocoder
静岡県袋井市堀越769-1,34.75677490234375,137.91001892089844,静岡県袋井市堀越769-1,jageocoder
静岡県裾野市伊豆島田836-1,35.15332794189453,138.9050750732422,静岡県裾野市伊豆島田836-1,jageocoder
滋賀県長浜市八幡東町9-1,35.386695861816406,136.281982421875,滋賀県長浜市八幡東町9-1,jageocoder
兵庫県西宮市大島町4-22,34.76176834106445,135.36712646484375,兵庫県西宮市大島町4-22,jageocoder
愛知県西尾市上町泡原73-5,34.869407653808594,137.04736328125,愛知県西尾市上町泡原73-5,jageocoder
愛知県西尾市一色町対米九郎左30-1,34.80556106567383,137.03221130371094,愛知県西尾市一色町対米九郎左30-1,jageocoder
埼玉県川越市大字小ヶ谷443,35.919403076171875,139.45619201660156,埼玉県川越市大字小ヶ谷443,jageocoder
大阪府大阪市西成区津守3-5-56,34.63835144042969,135.4828338623047,大阪府大阪市西成区津守3-5-56,jageocoder
愛知県北名古屋市徳重大日51-1,35.25558853149414,136.8673858642578,愛知県北名古屋市徳重大日51-1,jageocoder
神奈川県横浜市戸塚区品濃町537-1 西武東戸塚S.C. 西武館5F,35.43033218383789,139.5584716796875,神奈川県横浜市戸塚区品濃町537-1 西武東戸塚S.C. 西武館5F,jageocoder
大阪府大阪市西淀川区歌島2-3-5,34.712928771972656,135.46316528320312,大阪府大阪市西淀川区歌島2-3-5,jageocoder
京都府舞鶴市女布2-172,35.42903137207031,135.32174682617188,京都府舞鶴市女布2-172,jageocoder
栃木県那須塩原市新南163-504,36.88402557373047,139.99700927734375,栃木県那須塩原市新南163-504,jageocoder
東京都大田区南馬込5-35-2,35.58536148071289,139.7068634033203,東京都大田区南馬込5-35-2,jageocoder
新潟県見附市葛巻町1670-1,37.52955627441406,138.9089813232422,新潟県見附市葛巻町1670-1,jageocoder
東京都調布市佐須町4-68-15,35.65990447998047,139.55621337890625,東京都調布市佐須町4-68-15,jageocoder
長野県諏訪市上川3-2370,36.02986526489258,138.11849975585938,長野県諏訪市上川3-2370,jageocoder
長崎県諫早市森山町田尻1900-1,32.82530975341797,130.1479949951172,長崎県諫早市森山町田尻1900-1,jageocoder
大阪府豊中市服部豊町2-20-20,34.7642822265625,135.46824645996094,大阪府豊中市服部豊町2-20-20,jageocoder
大阪府豊中市永楽荘2-4-8,34.81330490112305,135.46871948242188,大阪府豊中市永楽荘2-4-8,jageocoder
兵庫県豊岡市九日市中町字権現132-17,35.524845123291016,134.82147216796875,兵庫県豊岡市九日市中町字権現132-17,jageocoder
愛知県豊橋市中岩田2-8-7,34.753868103027344,137.42604064941406,愛知県豊橋市中岩田2-8-7,jageocoder
愛知県豊橋市三ツ相町365-,34.77305221557617,137.36163330078125,愛知県豊橋市三ツ相町365-,jageocoder
愛知県豊橋市高師町字西沢120-2,34.72317123413086,137.38575744628906,愛知県豊橋市高師町字西沢120-2,jageocoder
愛知県豊田市丸山町4-12-1,35.064327239990234,137.15097045898438,愛知県豊田市丸山町4-12-1,jageocoder
沖縄県豊見城市字根差部658-1,26.188671112060547,127.68867492675781,沖縄県豊見城市字根差部658-1,jageocoder
大阪府貝塚市半田一-10-39,34.43757247924805,135.3749237060547,大阪府貝塚市半田一-10-39,jageocoder
岡山県赤磐市高屋394,34.75606155395508,134.02337646484375,岡山県赤磐市高屋394,jageocoder
福井県越前市横市町35字橋詰16-1,35.90565490722656,136.19369506835938,福井県越前市横市町35字橋詰16-1,jageocoder
埼玉県越谷市レイクタウン二-1-4 ※イオンレイクタウンの敷地内には御座いません。,35.884098052978516,139.8162078857422,埼玉県越谷市レイクタウン二-1-4 ※イオンレイクタウンの敷地内には御座いません。,jageocoder
埼玉県越谷市大字大道24-,35.92158126831055,139.75851440429688,埼玉県越谷市大字大道24-,jageocoder
埼玉県越谷市大字弥十郎578-1,35.91703796386719,139.7945098876953,埼玉県越谷市大字弥十郎578-1,jageocoder
東京都足立区伊興1-24-18,35.79191207885742,139.7870635986328,東京都足立区伊興1-24-18,jageocoder
東京都足立区大谷田5-14-14,35.78163146972656,139.84056091308594,東京都足立区大谷田5-14-14,jageocoder
東京都足立区梅島1-24-2,35.771724700927734,139.80296325683594,東京都足立区梅島1-24-2,jageocoder
東京都足立区鹿浜4-29-7,35.783180236816406,139.7598876953125,東京都足立区鹿浜4-29-7,jageocoder
神奈川県藤沢市羽鳥1-3-11,35.343467712402344,139.44903564453125,神奈川県藤沢市羽鳥1-3-11,jageocoder
滋賀県高島市今津町南新保508-1,35.40714645385742,136.0401153564453,滋賀県高島市今津町南新保508-1,jageocoder
滋賀県近江八幡市鷹飼町北1-8-8,35.1292724609375,136.1068878173828,滋賀県近江八幡市鷹飼町北1-8-8,jageocoder
茨城県那珂市菅谷669-70,36.453773498535156,140.49896240234375,茨城県那珂市菅谷669-70,jageocoder
沖縄県那覇市おもろまち3-4-26,26.228973388671875,127.69341278076172,沖縄県那覇市おもろまち3-4-26,jageocoder
福島県郡山市堤3-3-,37.39870071411133,140.3336944580078,福島県郡山市堤3-3-,jageocoder
福島県郡山市安積3-13,37.35749053955078,140.36566162109375,福島県郡山市安積3-13,jageocoder
福島県郡山市富田東5-155-,37.42344665527344,140.37216186523438,福島県郡山市富田東5-155-,jageocoder
福島県郡山市芳賀一-3-7,37.393714904785156,140.39515686035156,福島県郡山市芳賀一-3-7,jageocoder
宮崎県都城市上川東4-3-10,31.74523162841797,131.07826232910156,宮崎県都城市上川東4-3-10,jageocoder
宮崎県都城市年見町4街区29,31.73349952697754,131.0826873779297,宮崎県都城市年見町4街区29,jageocoder
山梨県都留市十日市場924-1,35.53859329223633,138.88070678710938,山梨県都留市十日市場924-1,jageocoder
山形県酒田市山居町二-1-8,38.912105560302734,139.8348388671875,山形県酒田市山居町二-1-8,jageocoder
石川県野々市市徳用三-304-,36.53509521484375,136.59104919433594,石川県野々市市徳用三-304-,jageocoder
石川県野々市市中林1-403,36.50861740112305,136.6076202392578,石川県野々市市中林1-403,jageocoder
千葉県野田市みずき1-13-11,35.92569351196289,139.88333129882812,千葉県野田市みずき1-13-11,jageocoder
石川県河北郡津幡町北中条4-84-,36.66341781616211,136.72850036621094,石川県河北郡津幡町北中条4-84-,jageocoder
石川県金沢市藤江北3-371,36.59028625488281,136.61866760253906,石川県金沢市藤江北3-371,jageocoder
大阪府大阪市東住吉区鷹合1-13-9,34.616111755371094,135.52850341796875,大阪府大阪市東住吉区鷹合1-13-9,jageocoder
北海道釧路市昭和中央5-1-11,43.0246467590332,144.3527069091797,北海道釧路市昭和中央5-1-11,jageocoder
宮城県仙台市太白区鈎取本町1-21-1 イオン鈎取ショッピングセンタ-2F,38.21877670288086,140.83798217773438,宮城県仙台市太白区鈎取本町1-21-1 イオン鈎取ショッピングセンタ-2F,jageocoder
三重県鈴鹿市稲生4-1-1,34.84054183959961,136.55905151367188,三重県鈴鹿市稲生4-1-1,jageocoder
三重県鈴鹿市安塚町字須田122-1,34.8703727722168,136.5869903564453,三重県鈴鹿市安塚町字須田122-1,jageocoder
千葉県銚子市三崎町2-2617-,35.715171813964844,140.79783630371094,千葉県銚子市三崎町2-2617-,jageocoder
宮城県仙台市青葉区錦ケ丘一-3-1,38.257450103759766,140.76443481445312,宮城県仙台市青葉区錦ケ丘一-3-1,jageocoder
東京都墨田区江東橋四-27-14 錦糸町パルコ3階,35.69606399536133,139.8152313232422,東京都墨田区江東橋四-27-14 錦糸町パルコ3階,jageocoder
千葉県鎌ケ谷市東道野辺4-15-35,35.75569152832031,140.0055389404297,千葉県鎌ケ谷市東道野辺4-15-35,jageocoder
山形県長井市館町南12-52,38.09123992919922,140.0407257080078,山形県長井市館町南12-52,jageocoder
長崎県大村市古賀島町428,32.928714752197266,129.93789672851562,長崎県大村市古賀島町428,jageocoder
長崎県西彼杵郡時津町久留里郷321-1,32.83867645263672,129.83816528320312,長崎県西彼杵郡時津町久留里郷321-1,jageocoder
滋賀県長浜市八幡中山町字蓮庵1178-2,35.39183807373047,136.26937866210938,滋賀県長浜市八幡中山町字蓮庵1178-2,jageocoder
長野県長野市上松3-24-25,36.675140380859375,138.19970703125,長野県長野市上松3-24-25,jageocoder
長野県長野市平林2-16-8,36.65449142456055,138.21533203125,長野県長野市平林2-16-8,jageocoder
長野県長野市稲里町中央4-12-12,36.60546875,138.1668243408203,長野県長野市稲里町中央4-12-12,jageocoder
大阪府門真市東江端町3-8,34.7239990234375,135.62017822265625,大阪府門真市東江端町3-8,jageocoder
神奈川県足柄上郡開成町みなみ一-19-8,35.32217788696289,139.1304931640625,神奈川県足柄上郡開成町みなみ一-19-8,jageocoder
岐阜県関市池田町163-1,35.49414825439453,136.8991241455078,岐阜県関市池田町163-1,jageocoder
山口県防府市国衙一-12-3,34.054935455322266,131.58529663085938,山口県防府市国衙一-12-3,jageocoder
鹿児島県霧島市隼人町見次435-,31.74268913269043,130.7396697998047,鹿児島県霧島市隼人町見次435-,jageocoder
東京都青梅市今寺5-7-5,35.79291915893555,139.2990264892578,東京都青梅市今寺5-7-5,jageocoder
青森県青森市浜館5-3-18,40.808685302734375,140.79168701171875,青森県青森市浜館5-3-18,jageocoder
北海道日高郡新ひだか町静内山手町1-3-12,42.3420524597168,142.3621368408203,北海道日高郡新ひだか町静内山手町1-3-12,jageocoder
静岡県静岡市駿河区下川原4-16-30,34.935646057128906,138.38197326660156,静岡県静岡市駿河区下川原4-16-30,jageocoder
静岡県静岡市駿河区敷地1-19-26,34.950584411621094,138.4129180908203,静岡県静岡市駿河区敷地1-19-26,jageocoder
静岡県静岡市葵区水道町30-2,34.98628616333008,138.36807250976562,静岡県静岡市葵区水道町30-2,jageocoder
静岡県静岡市葵区瀬名川2-27-29,35.007408142089844,138.42703247070312,静岡県静岡市葵区瀬名川2-27-29,jageocoder
兵庫県神戸市須磨区中落合2-2-1 須磨パティオ 3-館2F,34.67841339111328,135.0946502685547,兵庫県神戸市須磨区中落合2-2-1 須磨パティオ 3-館2F,jageocoder
岐阜県高山市昭和町3-38-1,36.14858627319336,137.24966430664062,岐阜県高山市昭和町3-38-1,jageocoder
福岡県飯塚市弁分58-1,33.62281799316406,130.66769409179688,福岡県飯塚市弁分58-1,jageocoder
福岡県飯塚市柏の森字山内1-33,33.64622116088867,130.7127685546875,福岡県飯塚市柏の森字山内1-33,jageocoder
長野県飯田市鼎名古熊2206-1,35.499141693115234,137.8236083984375,長野県飯田市鼎名古熊2206-1,jageocoder
兵庫県姫路市飾磨区恵美酒松之本232,34.80464553833008,134.67279052734375,兵庫県姫路市飾磨区恵美酒松之本232,jageocoder
香川県綾歌郡宇多津町浜4-44-1,34.312538146972656,133.81561279296875,香川県綾歌郡宇多津町浜4-44-1,jageocoder
群馬県高崎市緑町1-20-5,36.35036849975586,139.0041961669922,群馬県高崎市緑町1-20-5,jageocoder
群馬県高崎市高関町字東沖455-1,36.32612228393555,139.03204345703125,群馬県高崎市高関町字東沖455-1,jageocoder
香川県高松市松縄町1128-9,34.31473922729492,134.06094360351562,香川県高松市松縄町1128-9,jageocoder
香川県高松市上福岡町2059-5,34.326446533203125,134.06356811523438,香川県高松市上福岡町2059-5,jageocoder
香川県高松市多肥上町55-1,34.29525375366211,134.04257202148438,香川県高松市多肥上町55-1,jageocoder
香川県高松市川島東町字郷249-1,34.277320861816406,134.09176635742188,香川県高松市川島東町字郷249-1,jageocoder
香川県高松市鹿角町287-1,34.30242919921875,134.0350341796875,香川県高松市鹿角町287-1,jageocoder
大阪府高槻市竹の内町65-33,34.821128845214844,135.62782287597656,大阪府高槻市竹の内町65-33,jageocoder
大阪府高槻市郡家新町3-34,34.848716735839844,135.602294921875,大阪府高槻市郡家新町3-34,jageocoder
愛知県高浜市稗田町二-7-18,34.925960540771484,136.99252319335938,愛知県高浜市稗田町二-7-18,jageocoder
高知県南国市篠原190-1,33.56866455078125,133.6346893310547,高知県南国市篠原190-1,jageocoder
高知県高知市南御座9-1,33.56598663330078,133.56076049804688,高知県高知市南御座9-1,jageocoder
高知県高知市瀬戸西町2-8-2,33.513526916503906,133.54469299316406,高知県高知市瀬戸西町2-8-2,jageocoder
高知県高知市神田1147-1,33.542301177978516,133.51593017578125,高知県高知市神田1147-1,jageocoder
高知県高知市針木東町26-63,33.53327178955078,133.4749755859375,高知県高知市針木東町26-63,jageocoder
愛知県春日井市白山町5-11-5,35.27162170410156,137.0279083251953,愛知県春日井市白山町5-11-5,jageocoder
富山県魚津市友道1059-1,36.812469482421875,137.41024780273438,富山県魚津市友道1059-1,jageocoder
鳥取県鳥取市千代水4-11-,35.51544189453125,134.1930389404297,鳥取県鳥取市千代水4-11-,jageocoder
鳥取県鳥取市吉成714-1,35.485008239746094,134.2200164794922,鳥取県鳥取市吉成714-1,jageocoder
鳥取県鳥取市田島606-1,35.51250076293945,134.21690368652344,鳥取県鳥取市田島606-1,jageocoder
大阪府堺市西区鳳北町9丁507,34.54371643066406,135.462646484375,大阪府堺市西区鳳北町9丁507,jageocoder
徳島県鳴門市撫養町大桑島字北ノ浜60-,34.19050979614258,134.60311889648438,徳島県鳴門市撫養町大桑島字北ノ浜60-,jageocoder
千葉県鴨川市貝渚中川間300 ベイシア鴨川敷地内,35.10444641113281,140.0963897705078,千葉県鴨川市貝渚中川間300 ベイシア鴨川敷地内,jageocoder
埼玉県鴻巣市大間4-26-21,36.06026840209961,139.50392150878906,埼玉県鴻巣市大間4-26-21,jageocoder
埼玉県鶴ヶ島市新町4-11-4,35.93446731567383,139.37039184570312,埼玉県鶴ヶ島市新町4-11-4,jageocoder
大阪府大阪市鶴見区諸口1-6-10,34.69892501831055,135.57479858398438,大阪府大阪市鶴見区諸口1-6-10,jageocoder
鹿児島県鹿児島市卸本町7-25,31.513887405395508,130.5199432373047,鹿児島県鹿児島市卸本町7-25,jageocoder
鹿児島県鹿児島市吉野町2224-1,31.639184951782227,130.57127380371094,鹿児島県鹿児島市吉野町2224-1,jageocoder
鹿児島県鹿屋市旭原町3589-38,31.399580001831055,130.8795166015625,鹿児島県鹿屋市旭原町3589-38,jageocoder
鹿児島県鹿屋市共栄町19-26,31.376277923583984,130.85516357421875,鹿児島県鹿屋市共栄町19-26,jageocoder
鹿児島県肝属郡肝付町富山901-5,31.387794494628906,130.89642333984375,鹿児島県肝属郡肝付町富山901-5,jageocoder
栃木県鹿沼市西茂呂4-41-7,36.54524230957031,139.76731872558594,栃木県鹿沼市西茂呂4-41-7,jageocoder
千葉県印西市原1-2 BIG HOPガ-デンモ-ル印西1階,35.80307388305664,140.16488647460938,千葉県印西市原1-2 BIG HOPガ-デンモ-ル印西1階,jageocoder
山口県山陽小野田市中川6-4-1 おのだサンパ-ク西館2F,33.985801696777344,131.17054748535156,山口県山陽小野田市中川6-4-1 おのだサンパ-ク西館2F,jageocoder
東京都港区台場1-6-1 アイランドモ-ル4F,35.63018035888672,139.77798461914062,東京都港区台場1-6-1 アイランドモ-ル4F,jageocoder
東京都八王子市別所2-56- ぐり-んうぉ-く多摩コ-ナン1階,35.611900329589844,139.39599609375,東京都八王子市別所2-56- ぐり-んうぉ-く多摩コ-ナン1階,jageocoder
大阪府箕面市西宿1-17-22 みのおキュ-ズモ-ルEAST1 2階,34.83305358886719,135.49078369140625,大阪府箕面市西宿1-17-22 みのおキュ-ズモ-ルEAST1 2階,jageocoder
千葉県船橋市浜町2-2-7 ららぽ-と TOKYO-BAY North Gate2F,35.687625885009766,139.99221801757812,千葉県船橋市浜町2-2-7 ららぽ-と TOKYO-BAY North Gate2F,jageocoder
東京都足立区谷中4-8-1 三井ショッピングパ-クららテラス北綾瀬3F,35.77769088745117,139.83126831054688,東京都足立区谷中4-8-1 三井ショッピングパ-クららテラス北綾瀬3F,jageocoder
埼玉県川口市栄町3-5-1 三井ショッピングパ-ク ららテラス川口8F,35.8024787902832,139.7185821533203,埼玉県川口市栄町3-5-1 三井ショッピングパ-ク ららテラス川口8F,jageocoder
茨城県笠間市寺崎1-1 アクロスプラザ笠間内,36.39440155029297,140.2541046142578,茨城県笠間市寺崎1-1 アクロスプラザ笠間内,jageocoder
千葉県鎌ケ谷市新鎌ケ谷2-12-1 アクロスモ-ル新鎌ケ谷2階,35.780975341796875,140.00128173828125,千葉県鎌ケ谷市新鎌ケ谷2-12-1 アクロスモ-ル新鎌ケ谷2階,jageocoder
群馬県館林市楠町3648-1 アゼリアモ-ルA館 2F,36.242225646972656,139.56849670410156,群馬県館林市楠町3648-1 アゼリアモ-ルA館 2F,jageocoder
愛知県岩倉市旭町一-25- アピタパワ-岩倉店 1F,35.27674865722656,136.87208557128906,愛知県岩倉市旭町一-25- アピタパワ-岩倉店 1F,jageocoder
兵庫県尼崎市道意町7-1-1 コ-ナン尼崎道意町店1階,34.7123908996582,135.39825439453125,兵庫県尼崎市道意町7-1-1 コ-ナン尼崎道意町店1階,jageocoder
秋田県横手市十文字町佐賀会字上沖田272-1 イオンタウン十文字南SC内,39.21699905395508,140.5164031982422,秋田県横手市十文字町佐賀会字上沖田272-1 イオンタウン十文字南SC内,jageocoder
香川県高松市国分寺町新名654-3 イオンタウン国分寺ショッピングセンタ-内,34.29215621948242,133.96127319335938,香川県高松市国分寺町新名654-3 イオンタウン国分寺ショッピングセンタ-内,jageocoder
沖縄県宮古島市平良字松原631- イオンタウン宮古南ショッピングセンタ-内,24.788658142089844,125.27969360351562,沖縄県宮古島市平良字松原631- イオンタウン宮古南ショッピングセンタ-内,jageocoder
三重県津市芸濃町椋本一ツ谷3083 イオンタウンショッピングセンタ-芸濃内,34.80542755126953,136.44630432128906,三重県津市芸濃町椋本一ツ谷3083 イオンタウンショッピングセンタ-芸濃内,jageocoder
神奈川県横浜市瀬谷区三ツ境7-1 イオンフ-ドスタイル三ツ境店内,35.4660530090332,139.5043182373047,神奈川県横浜市瀬谷区三ツ境7-1 イオンフ-ドスタイル三ツ境店内,jageocoder
福岡県大牟田市岬町3-4 イオンモ-ル大牟田店 2F,33.03047180175781,130.42776489257812,福岡県大牟田市岬町3-4 イオンモ-ル大牟田店 2F,jageocoder
熊本県宇城市小川町河江1-1 イオンモ-ル宇城内,32.593170166015625,130.70701599121094,熊本県宇城市小川町河江1-1 イオンモ-ル宇城内,jageocoder
兵庫県神戸市兵庫区中之島2-1-1 イオンモ-ル神戸南 3F,34.665367126464844,135.1744384765625,兵庫県神戸市兵庫区中之島2-1-1 イオンモ-ル神戸南 3F,jageocoder
埼玉県三郷市ピアラシティ1-1-1 イト-ヨ-カド-三郷店の2F,35.84331130981445,139.8524932861328,埼玉県三郷市ピアラシティ1-1-1 イト-ヨ-カド-三郷店の2F,jageocoder
栃木県宇都宮市インタ-パ-ク4-2-3 宇都宮インタ-パ-クスタジアム内(ノ-スゲ-ト左、ウエストゲ-ト正面),36.49329376220703,139.91004943847656,栃木県宇都宮市インタ-パ-ク4-2-3 宇都宮インタ-パ-クスタジアム内(ノ-スゲ-ト左、ウエストゲ-ト正面),jageocoder
北海道北広島市大曲幸町6-1- インタ-ヴィレッジ大曲 専門モ-ル ペコラプラザ内,42.9691162109375,141.4697723388672,北海道北広島市大曲幸町6-1- インタ-ヴィレッジ大曲 専門モ-ル ペコラプラザ内,jageocoder
沖縄県豊見城市豊崎3-35 イ-アス沖縄豊崎内3階,26.157798767089844,127.6511001586914,沖縄県豊見城市豊崎3-35 イ-アス沖縄豊崎内3階,jageocoder
大阪府和泉市いぶき野5-1-11 エコ-ル・いずみ 本館 3階,34.459590911865234,135.455810546875,大阪府和泉市いぶき野5-1-11 エコ-ル・いずみ 本館 3階,jageocoder
埼玉県三郷市中央1-3-1 エムズタウン三郷中央内,35.824527740478516,139.87887573242188,埼玉県三郷市中央1-3-1 エムズタウン三郷中央内,jageocoder
愛知県額田郡幸田町大字相見字沖原27-1 カメリアガ-デン幸田内,34.88853073120117,137.16334533691406,愛知県額田郡幸田町大字相見字沖原27-1 カメリアガ-デン幸田内,jageocoder
大阪府茨木市彩都あさぎ1-2-1 ガ-デンモ-ル彩都3F,34.85358428955078,135.5244598388672,大阪府茨木市彩都あさぎ1-2-1 ガ-デンモ-ル彩都3F,jageocoder
京都府木津川市州見台1-1-1-1 ガ-デンモ-ル木津川2階,34.72123718261719,135.81837463378906,京都府木津川市州見台1-1-1-1 ガ-デンモ-ル木津川2階,jageocoder
愛知県蒲郡市鹿島町浅井新田1-26 クラスポ蒲郡ショッピングセンタ-内,34.8116455078125,137.1950225830078,愛知県蒲郡市鹿島町浅井新田1-26 クラスポ蒲郡ショッピングセンタ-内,jageocoder
東京都多摩市落合2-33 クロスガ-デン多摩の3階,35.620086669921875,139.42333984375,東京都多摩市落合2-33 クロスガ-デン多摩の3階,jageocoder
愛知県豊田市陣中町1-26-8 クロスモ-ル豊田陣中 2F,35.093299865722656,137.1625518798828,愛知県豊田市陣中町1-26-8 クロスモ-ル豊田陣中 2F,jageocoder
福岡県福岡市博多区東光寺2-6-40 コマ-シャルモ-ル博多内,33.59458541870117,130.4262237548828,福岡県福岡市博多区東光寺2-6-40 コマ-シャルモ-ル博多内,jageocoder
神奈川県横浜市都筑区茅ヶ崎中央53-1 コ-ナン港北センタ-南モ-ル内,35.54666519165039,139.57640075683594,神奈川県横浜市都筑区茅ヶ崎中央53-1 コ-ナン港北センタ-南モ-ル内,jageocoder
大阪府吹田市山田北6-1 コ-ナン千里山田2館,34.80927658081055,135.51812744140625,大阪府吹田市山田北6-1 コ-ナン千里山田2館,jageocoder
神奈川県川崎市川崎区小田栄2-3-1 コ-ナン川崎小田栄店 2F,35.5139274597168,139.71009826660156,神奈川県川崎市川崎区小田栄2-3-1 コ-ナン川崎小田栄店 2F,jageocoder
神奈川県横浜市都筑区折本町191- コ-ナン港北インタ-店 2階,35.52135467529297,139.58932495117188,神奈川県横浜市都筑区折本町191- コ-ナン港北インタ-店 2階,jageocoder
東京都北区堀船一-23-13 コ-ナン王子堀船店3階,35.7520866394043,139.7441864013672,東京都北区堀船一-23-13 コ-ナン王子堀船店3階,jageocoder
神奈川県鎌倉市岡本1188-1 コ-ナン鎌倉大船店 2階,35.346797943115234,139.5175323486328,神奈川県鎌倉市岡本1188-1 コ-ナン鎌倉大船店 2階,jageocoder
静岡県駿東郡清水町伏見52-1 サントム-ンオアシス3F,35.1094970703125,138.90086364746094,静岡県駿東郡清水町伏見52-1 サントム-ンオアシス3F,jageocoder
山口県下関市竹崎町4-4-8 シ-モ-ル下関3F,33.94910430908203,130.9236297607422,山口県下関市竹崎町4-4-8 シ-モ-ル下関3F,jageocoder
大阪府堺市南区三原台1丁1-3 ジョイパ-ク泉ヶ丘2階,34.4987678527832,135.5139923095703,大阪府堺市南区三原台1丁1-3 ジョイパ-ク泉ヶ丘2階,jageocoder
鹿児島県鹿児島市宇宿2-2-18 宇宿ショッピングセンタ-内2階,31.543079376220703,130.5424041748047,鹿児島県鹿児島市宇宿2-2-18 宇宿ショッピングセンタ-内2階,jageocoder
和歌山県新宮市佐野3-11-19 ス-パ-センタ-オ-クワ南紀内,33.67678451538086,135.97093200683594,和歌山県新宮市佐野3-11-19 ス-パ-センタ-オ-クワ南紀内,jageocoder
宮城県塩竈市杉の入三-3-1 ス-パ-センタ-トライアル塩釜店内2F,38.33258056640625,141.03720092773438,宮城県塩竈市杉の入三-3-1 ス-パ-センタ-トライアル塩釜店内2F,jageocoder
島根県浜田市周布町イ61-1 ス-パ-センタ-トライアル浜田店内,34.86284255981445,132.02645874023438,島根県浜田市周布町イ61-1 ス-パ-センタ-トライアル浜田店内,jageocoder
神奈川県横須賀市平成町3-28-2 ノジマモ-ル横須賀2階,35.27800750732422,139.68093872070312,神奈川県横須賀市平成町3-28-2 ノジマモ-ル横須賀2階,jageocoder
岡山県岡山市北区西古松西町6-5 ハロ-ズ西古松モ-ル店 2F,34.647743225097656,133.90467834472656,岡山県岡山市北区西古松西町6-5 ハロ-ズ西古松モ-ル店 2F,jageocoder
栃木県小山市喜沢1475 おやまゆうえんハ-ヴェストウォ-ク内,36.33413314819336,139.80691528320312,栃木県小山市喜沢1475 おやまゆうえんハ-ヴェストウォ-ク内,jageocoder
愛知県名古屋市緑区元徳重1-505- ヒルズウォ-ク徳重ガ-デンズ2F,35.09433364868164,136.99925231933594,愛知県名古屋市緑区元徳重1-505- ヒルズウォ-ク徳重ガ-デンズ2F,jageocoder
大阪府大阪市西区九条南1-12-33 フォレオ大阪ド-ムシティ2F,34.66929626464844,135.47340393066406,大阪府大阪市西区九条南1-12-33 フォレオ大阪ド-ムシティ2F,jageocoder
埼玉県飯能市大字新光1-4 フ-コット飯能SC内,35.85144805908203,139.34315490722656,埼玉県飯能市大字新光1-4 フ-コット飯能SC内,jageocoder
福岡県福岡市博多区千代一-2-1 ブランチ博多パピヨンガ-デン内1階,33.600399017333984,130.41954040527344,福岡県福岡市博多区千代一-2-1 ブランチ博多パピヨンガ-デン内1階,jageocoder
千葉県習志野市芝園1-4-1 ホ-ムズ幕張内2階,35.66033172607422,140.02191162109375,千葉県習志野市芝園1-4-1 ホ-ムズ幕張内2階,jageocoder
大阪府大東市赤井1-4-3 ポップタウン住道オペラパ-ク3階,34.708919525146484,135.6199951171875,大阪府大東市赤井1-4-3 ポップタウン住道オペラパ-ク3階,jageocoder
福岡県福岡市中央区地行浜2-2-1 マ-クイズ福岡ももち 3F,33.59434127807617,130.36241149902344,福岡県福岡市中央区地行浜2-2-1 マ-クイズ福岡ももち 3F,jageocoder
福岡県大牟田市馬渡町1-1 ミスタ-マックス大牟田SC内,33.01441192626953,130.4649658203125,福岡県大牟田市馬渡町1-1 ミスタ-マックス大牟田SC内,jageocoder
山口県柳井市駅南1-12 ミスタ-マックスSC内,33.966888427734375,132.100830078125,山口県柳井市駅南1-12 ミスタ-マックスSC内,jageocoder
神奈川県藤沢市辻堂新町4-3-5 ミスタ-マックス湘南藤沢SC 1F,35.341548919677734,139.46507263183594,神奈川県藤沢市辻堂新町4-3-5 ミスタ-マックス湘南藤沢SC 1F,jageocoder
香川県善通寺市金蔵寺町川添1903- メガセンタ-トライアル内,34.25366973876953,133.78338623046875,香川県善通寺市金蔵寺町川添1903- メガセンタ-トライアル内,jageocoder
福岡県田川市大字川宮1706-1 ハイパ-モ-ルメルクス田川内,33.65019989013672,130.80076599121094,福岡県田川市大字川宮1706-1 ハイパ-モ-ルメルクス田川内,jageocoder
埼玉県さいたま市大宮区吉敷町四-263-6 ヨドバシコク-ンさいたま新都心 コク-ン3 3階,35.89669418334961,139.63433837890625,埼玉県さいたま市大宮区吉敷町四-263-6 ヨドバシコク-ンさいたま新都心 コク-ン3 3階,jageocoder
茨城県坂東市辺田1104-1 ヨ-クタウン坂東ショッピングセンタ-内,36.03763961791992,139.89012145996094,茨城県坂東市辺田1104-1 ヨ-クタウン坂東ショッピングセンタ-内,jageocoder
茨城県結城市大字結城11839-1 ヨ-クタウンSC内,36.30607604980469,139.86788940429688,茨城県結城市大字結城11839-1 ヨ-クタウンSC内,jageocoder
山梨県韮崎市若宮2-2-23-1 ライフガ-デン韮崎内,35.71210861206055,138.4529266357422,山梨県韮崎市若宮2-2-23-1 ライフガ-デン韮崎内,jageocoder
奈良県奈良市西九条町3-13 ロイヤルホ-ムセンタ-奈良2F,34.656314849853516,135.7993927001953,奈良県奈良市西九条町3-13 ロイヤルホ-ムセンタ-奈良2F,jageocoder
福岡県北九州市八幡西区真名子2-4 八幡西ショッピングセンタ-内,33.784034729003906,130.7290496826172,福岡県北九州市八幡西区真名子2-4 八幡西ショッピングセンタ-内,jageocoder
東京都八王子市旭町1-12 八王子オ-パ4F,35.65579605102539,139.33621215820312,東京都八王子市旭町1-12 八王子オ-パ4F,jageocoder
東京都江東区新砂3-4-31 南砂町ショッピングセンタ-SUNAMO3階,35.66548538208008,139.83448791503906,東京都江東区新砂3-4-31 南砂町ショッピングセンタ-SUNAMO3階,jageocoder
神奈川県厚木市中町1-5-10 厚木ガ-デンシティ内5階,35.442161560058594,139.36660766601562,神奈川県厚木市中町1-5-10 厚木ガ-デンシティ内5階,jageocoder
愛知県名古屋市緑区浦里3-232 なるぱ-くショッピングセンタ-の2階,35.08452606201172,136.9467010498047,愛知県名古屋市緑区浦里3-232 なるぱ-くショッピングセンタ-の2階,jageocoder
福島県喜多方市押切南2-42-1 リオンド-ル喜多方西店内,37.646419525146484,139.8589630126953,福島県喜多方市押切南2-42-1 リオンド-ル喜多方西店内,jageocoder
三重県四日市市日永4-2-1 服部家具センタ-四日市本店 1階,34.94685363769531,136.60597229003906,三重県四日市市日永4-2-1 服部家具センタ-四日市本店 1階,jageocoder
岐阜県多治見市西坂町5-31-1 多治見インタ-モ-ル内 1階,35.349937438964844,137.10488891601562,岐阜県多治見市西坂町5-31-1 多治見インタ-モ-ル内 1階,jageocoder
群馬県太田市下田島町1118-3 太田下田島ショッピングモ-ル内,36.26713180541992,139.31842041015625,群馬県太田市下田島町1118-3 太田下田島ショッピングモ-ル内,jageocoder
群馬県太田市植木野町185-6 ベルク植木野モ-ル内,36.31871032714844,139.41482543945312,群馬県太田市植木野町185-6 ベルク植木野モ-ル内,jageocoder
新潟県小千谷市大字桜町字天田2480-1 原信マ-ケットシティ小千谷内,37.30937957763672,138.7838134765625,新潟県小千谷市大字桜町字天田2480-1 原信マ-ケットシティ小千谷内,jageocoder
福井県小浜市府中8麻ヶ瀬25-1 アヤハディオ小浜府中店ペットセンタ-2F,35.49494552612305,135.75634765625,福井県小浜市府中8麻ヶ瀬25-1 アヤハディオ小浜府中店ペットセンタ-2F,jageocoder
神奈川県小田原市前川100 フレスポ小田原シティ-モ-ル内北館 1階,35.281898498535156,139.19369506835938,神奈川県小田原市前川100 フレスポ小田原シティ-モ-ル内北館 1階,jageocoder
熊本県山鹿市方保田字鳥越3462-1 山鹿ショッピングセンタ-内,33.006553649902344,130.7233123779297,熊本県山鹿市方保田字鳥越3462-1 山鹿ショッピングセンタ-内,jageocoder
長野県岡谷市塚間町二-1-18 岡谷ライフガ-デン内,36.064998626708984,138.0523681640625,長野県岡谷市塚間町二-1-18 岡谷ライフガ-デン内,jageocoder
鹿児島県志布志市志布志町志布志3-24-1 サンポ-トしぶしアピアショッピングセンタ-内,31.471784591674805,131.09710693359375,鹿児島県志布志市志布志町志布志3-24-1 サンポ-トしぶしアピアショッピングセンタ-内,jageocoder
宮城県柴田郡大河原町字小島2-1 シ-ズンズウォ-クフォルテ1F,38.06467056274414,140.73721313476562,宮城県柴田郡大河原町字小島2-1 シ-ズンズウォ-クフォルテ1F,jageocoder
千葉県柏市大山台2-3- モラ-ジュ柏パ-ト2内2階,35.88262939453125,139.96923828125,千葉県柏市大山台2-3- モラ-ジュ柏パ-ト2内2階,jageocoder
新潟県新潟市秋葉区程島1974-3 新津程島ショッピングセンタ-内,37.78717041015625,139.11500549316406,新潟県新潟市秋葉区程島1974-3 新津程島ショッピングセンタ-内,jageocoder
新潟県新潟市東区錦町5-26 赤道ショッピングセンタ-内,37.93767166137695,139.0861358642578,新潟県新潟市東区錦町5-26 赤道ショッピングセンタ-内,jageocoder
茨城県日立市東滑川町5-1-3 シ-マ-クスクエア2階,36.61741638183594,140.677490234375,茨城県日立市東滑川町5-1-3 シ-マ-クスクエア2階,jageocoder
北海道札幌市北区太平12条1-1-1 MEGAドン・キホ-テ篠路店2F,43.13948059082031,141.34878540039062,北海道札幌市北区太平12条1-1-1 MEGAドン・キホ-テ篠路店2F,jageocoder
愛知県東海市荒尾町丸根1-22 マックスバリュ東海荒尾店ショッピングセンタ-内,35.02722930908203,136.90811157226562,愛知県東海市荒尾町丸根1-22 マックスバリュ東海荒尾店ショッピングセンタ-内,jageocoder
福岡県柳川市三橋町大字藤吉510-1 柳川ショッピングモ-ル内,33.165096282958984,130.41563415527344,福岡県柳川市三橋町大字藤吉510-1 柳川ショッピングモ-ル内,jageocoder
神奈川県横浜市青葉区桂台2-4-1 横浜青葉ガ-デン桂台内,35.54655456542969,139.5001983642578,神奈川県横浜市青葉区桂台2-4-1 横浜青葉ガ-デン桂台内,jageocoder
兵庫県神戸市灘区新在家南町1-2-2 サザンモ-ルセカンドストリ-ト内,34.70844650268555,135.24044799804688,兵庫県神戸市灘区新在家南町1-2-2 サザンモ-ルセカンドストリ-ト内,jageocoder
